,coord_lon,coord_lat,weather_id,weather_main,weather_description,weather_icon,base,main_temp,main_pressure,main_humidity,main_temp_min,main_temp_max,visibility,wind_speed,wind_deg,clouds_all,dt,sys_type,sys_id,sys_message,sys_country,sys_sunrise,sys_sunset,timezone,id,name,cod,main_sea_level,main_grnd_level,rain_1h,wind_gust,message,rain_3h,snow_3h,cities
1,121.89,-33.86,802,Clouds,scattered clouds,03d,stations,294.15,1020,52,294.15,294.15,10000,5.7,230,40,1569906460,1,9525,0.006,AU,1569879021,1569923651,28800,2071860,Esperance,200,,,,,,,,esperance
1,133.87,44.17,800,Clear,clear sky,01d,stations,300.5,1016.5,33,300.5,300.5,,3.1,226.438,0,1569906460,,,0.0088,RU,1569877267,1569919656,36000,2025286,Chuguyevka,200,1016.5,989.7,,,,,,chuguyevka
1,34.94,31.8,802,Clouds,scattered clouds,03d,stations,295.67,1010,73,292.04,297.15,10000,2.1,150,40,1569906461,1,6845,0.0055,IL,1569900817,1569943582,10800,6693679,Gizo,200,,,,,,,,gizo
1,-67.52,-46.43,802,Clouds,scattered clouds,03n,stations,275,1006.63,72,275,275,,4.26,187.362,35,1569906461,,,0.0061,AR,1569924099,1569969469,-10800,3863379,Mar del Plata,200,1006.63,972.13,,,,,,mar del plata
1,21.94,44.42,801,Clouds,few clouds,02d,stations,284.26,1015,84,284.26,284.26,,1.33,177.668,23,1569906462,3,2020379,0.0055,RS,1569904158,1569946480,7200,788357,Majdanpek,200,,,,,,,,majdanpek
1,74.49,15.34,802,Clouds,scattered clouds,03d,stations,298.15,1019,73,298.15,298.15,8000,1.27,248.969,40,1569906462,1,9229,0.0062,IN,1569891100,1569934319,19800,1273574,Vaini,200,,,,,,,,vaini
1,-159.32,22.08,501,Rain,moderate rain,10n,stations,298.79,1014,83,297.04,300.15,12874,2.1,170,90,1569906463,1,7865,0.0066,US,1569860894,1569903968,-36000,5848280,Kapaa,200,,,1.27,,,,,kapaa
1,14.64,63.18,802,Clouds,scattered clouds,03n,stations,273.2,985,74,272.59,274.15,10000,6.7,310,40,1569906198,1,1774,0.0069,SE,1569906482,1569947658,7200,2685750,Ostersund,200,,,,,,,,ostersund
1,-54.74,-15.9,801,Clouds,few clouds,02n,stations,298.7,1007.14,64,298.7,298.7,,1.86,331.262,20,1569906463,,,0.0064,BR,1569921696,1569965740,-14400,3448350,Pombas,200,1007.14,963.06,,,,,,pombas
1,150.16,-33.48,800,Clear,clear sky,01d,stations,292.93,1027,43,289.26,295.37,10000,3.6,90,0,1569906464,1,9599,0.0059,AU,1569872251,1569916855,36000,2160053,Lithgow,200,,,,,,,,lithgow
1,147.99,-37.88,801,Clouds,few clouds,02d,stations,294.82,1023,43,294.82,294.82,,2.24,170,15,1569906464,3,2003486,0.0057,AU,1569872676,1569917472,36000,2160735,Lakes Entrance,200,,,,4.47,,,,lakes entrance
1,149.07,-23.58,802,Clouds,scattered clouds,03d,stations,303.6,1017.58,22,303.6,303.6,,1.35,169.574,25,1569906465,,,0.0065,AU,1569872691,1569916938,36000,2175403,Bluff,200,1017.58,996.74,,,,,,bluff
1,168.86,-46.19,804,Clouds,overcast clouds,04d,stations,282.04,1009,71,282.04,282.04,,3.13,264,97,1569906465,3,2008959,0.0058,NZ,1569867453,1569912679,46800,6201424,Mataura,200,,,,6.71,,,,mataura
1,-56.83,-26.98,802,Clouds,scattered clouds,03n,stations,300.9,1002.04,29,300.9,300.9,,5.45,32.855,49,1569906465,,,0.006,PY,1569922012,1569966427,-14400,3437029,San Patricio,200,1002.04,989.13,,,,,,san patricio
1,-37.64,65.61,803,Clouds,broken clouds,04n,stations,274.15,1021,86,274.15,274.15,,1,,78,1569906466,1,81,0.0076,GL,1569919183,1569960046,-7200,3424607,Tasiilaq,200,,,,,,,,tasiilaq
1,133.23,35.55,803,Clouds,broken clouds,04d,stations,299.24,1019,78,298.15,300.15,10000,6.2,50,75,1569906466,1,8028,0.0065,JP,1569877273,1569919958,32400,1853174,Sakaiminato,200,,,,,,,,sakaiminato
1,,,,,,,,,,,,,,,,,,,,,,,,,,,404,,,,,city not found,,,karkaralinsk
1,-114.38,62.45,803,Clouds,broken clouds,04n,stations,278.94,1010,75,278.71,279.15,24140,4.1,170,75,1569906467,1,1007,0.0076,CA,1569850911,1569892385,-21600,6185377,Yellowknife,200,,,,,,,,yellowknife
1,-70.67,46.12,804,Clouds,overcast clouds,04n,stations,280.76,1021,41,279.82,282.04,,1.62,122.71,95,1569906224,3,2005187,0.0077,CA,1569926439,1569968641,-14400,6295855,Saint-Georges,200,,,,,,,,saint-georges
1,-46,-20.63,800,Clear,clear sky,01n,stations,290,1014.4,77,290,290,,3.3,62.083,0,1569906467,,,0.0068,BR,1569919525,1569963716,-10800,3453439,Ponta do Sol,200,1014.4,905.99,,,,,,ponta do sol
1,20.04,-34.53,800,Clear,clear sky,01d,stations,280.15,1024,93,280.15,280.15,,0.5,360,0,1569906468,1,1966,0.0059,ZA,1569903427,1569948122,7200,1015776,Bredasdorp,200,,,,,,,,bredasdorp
1,18.42,-33.93,800,Clear,clear sky,01d,stations,286.51,1022,76,283.71,288.71,10000,3.6,180,0,1569906264,1,1899,0.0065,ZA,1569903829,1569948498,7200,3369157,Cape Town,200,,,,,,,,cape town
1,59.54,50.76,800,Clear,clear sky,01d,stations,282.2,1026.4,45,282.2,282.2,,2.81,205.434,0,1569906468,,,0.008,RU,1569895267,1569937327,18000,565407,Dombarovskiy,200,1026.4,990.98,,,,,,dombarovskiy
1,-70.91,-53.16,802,Clouds,scattered clouds,03n,stations,274.99,1004,74,274.82,275.15,10000,6.7,250,40,1569906469,1,8487,0.0078,CL,1569924652,1569970543,-10800,3874787,Punta Arenas,200,,,,,,,,punta arenas
1,41.94,37.93,800,Clear,clear sky,01d,stations,297.3,1012.87,14,297.3,297.3,,0.21,173.355,0,1569906469,,,0.0074,TR,1569899234,1569941806,10800,300822,Siirt,200,1012.87,929.73,,,,,,siirt
1,-135.01,68.22,802,Clouds,scattered clouds,03n,stations,282.15,1005,68,282.15,282.15,24140,5.7,310,40,1569906469,1,796,0.0089,CA,1569856164,1569897032,-21600,5882953,Aklavik,200,,,,,,,,aklavik
1,69.25,29.9,800,Clear,clear sky,01d,stations,301.7,1009.13,37,301.7,301.7,,2.46,244.521,0,1569906470,,,0.0056,PK,1569892551,1569935383,18000,1173464,Kohlu,200,1009.13,888.79,,,,,,kohlu
1,73.08,-0.6,803,Clouds,broken clouds,04d,stations,301.1,1012.77,78,301.1,301.1,,6.81,108.977,62,1569906470,,,0.0054,MV,1569891241,1569934855,18000,1282256,Hithadhoo,200,1012.77,1012.68,,,,,,hithadhoo
1,-16.33,33.08,802,Clouds,scattered clouds,03n,stations,294.15,1020,73,294.15,294.15,10000,3.6,40,40,1569906470,1,6902,0.0066,PT,1569913147,1569955856,3600,2270385,Camacha,200,,,,,,,,camacha
1,,,,,,,,,,,,,,,,,,,,,,,,,,,404,,,,,city not found,,,lolua
1,-134.97,-23.12,500,Rain,light rain,10n,stations,293.7,1019.55,81,293.7,293.7,,6.55,115.853,53,1569906471,,,0.0061,PF,1569854481,1569898696,-32400,4030556,Rikitea,200,1019.55,1019.48,,,,0.187,,rikitea
1,-90.35,-0.74,803,Clouds,broken clouds,04n,stations,292.59,1014,95,292.59,292.59,,0.89,191,84,1569906472,3,2005652,0.0072,EC,1569844074,1569887690,-21600,3652764,Puerto Ayora,200,,,,3.58,,,,puerto ayora
1,102.47,71.98,802,Clouds,scattered clouds,03d,stations,271.3,1015.3,67,271.3,271.3,,1.4,307.099,28,1569906472,,,0.0064,RU,1569885943,1569926049,25200,2022572,Khatanga,200,1015.3,1012.21,,,,,,khatanga
1,-68.27,12.15,500,Rain,light rain,10n,stations,301.15,1008,88,301.15,301.15,10000,4.6,80,66,1569906473,1,8794,0.0062,BQ,1569925323,1569968605,-14400,3513563,Kralendijk,200,,,,,,1.563,,kralendijk
1,,,,,,,,,,,,,,,,,,,,,,,,,,,404,,,,,city not found,,,skalistyy
1,13.24,-8.83,803,Clouds,broken clouds,04d,stations,296.15,1011,94,296.15,296.15,8000,2.6,150,75,1569906456,1,2173,0.0069,AO,1569905490,1569949322,3600,2240449,Luanda,200,,,,,,,,luanda
1,172.79,3.07,801,Clouds,few clouds,02d,stations,302.8,1008.76,59,302.8,302.8,,2.44,141.869,18,1569906474,,,0.0054,KI,1569867361,1569910886,43200,2110227,Butaritari,200,1008.76,1008.79,,,,,,butaritari
1,-60.23,-38.31,804,Clouds,overcast clouds,04n,stations,281.2,1009.76,56,281.2,281.2,,3.3,332.675,92,1569906475,,,0.0051,AR,1569922584,1569967486,-10800,3833859,Barrow,200,1009.76,998.89,,,,,,barrow
1,147.33,-42.88,802,Clouds,scattered clouds,03d,stations,288.99,1025,41,288.15,289.82,10000,5.1,150,33,1569906346,1,9545,0.0077,AU,1569872709,1569917755,36000,2163355,Hobart,200,,,,,,,,hobart
1,-126.83,65.28,803,Clouds,broken clouds,04n,stations,282.15,1007,61,282.15,282.15,48279,1,80,75,1569906476,1,951,0.0091,CA,1569854032,1569895239,-21600,6089245,Norman Wells,200,,,,,,,,norman wells
1,,,,,,,,,,,,,,,,,,,,,,,,,,,404,,,,,city not found,,,taolanaro
1,-48.61,-23.1,800,Clear,clear sky,01n,stations,288.1,1013.24,88,288.1,288.1,,3.6,118.613,0,1569906477,,,0.0054,BR,1569920109,1569964384,-10800,3460594,Itatinga,200,1013.24,931.54,,,,,,itatinga
1,39.51,68.05,804,Clouds,overcast clouds,04d,stations,278,998.63,97,278,278,,5.74,73.37,100,1569906478,,,0.007,RU,1569900778,1569941428,10800,556268,Ostrovnoy,200,998.63,981.64,,,,,,ostrovnoy
1,63.78,67.55,804,Clouds,overcast clouds,04d,stations,275.1,1000.23,86,275.1,275.1,,4.22,166.095,100,1569906478,,,0.0083,RU,1569894906,1569935653,10800,1486910,Komsomolskiy,200,1000.23,979.35,,,,,,komsomolskiy
1,37.59,15.11,500,Rain,light rain,10d,stations,295.5,1014.87,79,295.5,295.5,,2.36,209.017,100,1569906479,,,0.0066,ER,1569899954,1569943174,10800,342711,Barentu,200,1014.87,908.52,,,,0.126,,barentu
1,-80.82,-5.56,803,Clouds,broken clouds,04n,stations,290.9,1013.78,89,290.9,290.9,,4.18,160.931,83,1569906479,,,0.0053,PE,1569928101,1569971850,-18000,3691954,Sechura,200,1013.78,1013.49,,,,,,sechura
1,-173.23,64.42,804,Clouds,overcast clouds,04n,stations,279.15,1012,87,279.15,279.15,10000,4,200,90,1569906480,1,8875,0.0072,RU,1569951724,1569992573,43200,4031574,Provideniya,200,,,,,,,,provideniya
1,167.42,-16.11,500,Rain,light rain,10d,stations,299.15,1015,100,299.15,299.15,,3.6,140,63,1569906481,1,7310,0.0067,VU,1569868403,1569912420,39600,2136697,Lakatoro,200,,,,,,0.876,,lakatoro
1,,,,,,,,,,,,,,,,,,,,,,,,,,,404,,,,,city not found,,,illoqqortoormiut
1,-7.36,4.42,500,Rain,light rain,10n,stations,296.5,1010.89,97,296.5,296.5,,1.53,232.71,98,1569906482,,,0.0075,CI,1569910606,1569954092,0,2281120,Tabou,200,1010.89,1007.91,,,,1,,tabou
1,-57.76,-6.22,500,Rain,light rain,10n,stations,295.6,1007.1,96,295.6,295.6,,1.03,68.074,97,1569906482,,,0.0072,BR,1569922559,1569966325,-10800,3397763,Jacareacanga,200,1007.1,986.21,,,,0.438,,jacareacanga
1,128.87,71.64,804,Clouds,overcast clouds,04d,stations,270.5,1003.16,88,270.5,270.5,,11.43,277.458,100,1569906483,,,0.0079,RU,1569879555,1569919768,32400,2015306,Tiksi,200,1003.16,990.47,,,,,,tiksi
1,-41.05,-21.64,804,Clouds,overcast clouds,04n,stations,291.5,1018.13,92,291.5,291.5,,1.61,134.546,99,1569906483,,,0.0062,BR,1569918321,1569962545,-10800,3448903,Sao Joao da Barra,200,1018.13,1006.89,,,,,,sao joao da barra
1,-77.74,39.62,701,Mist,mist,50n,stations,291.95,1022,82,290.93,293.15,16093,1.65,149.203,90,1569906483,1,4074,0.0098,US,1569928005,1569970467,-14400,4372777,Vardo,200,,,,,,,,vardo
1,-155.08,19.71,502,Rain,heavy intensity rain,10n,stations,295.48,1014,74,293.71,299.15,2816,2.1,,90,1569906484,1,7881,0.007,US,1569859847,1569902980,-36000,5855927,Hilo,200,,,0.76,,,,,hilo
1,-99.24,30.3,803,Clouds,broken clouds,04n,stations,298.5,1016,74,297.59,299.26,16093,4.1,160,75,1569906484,1,5990,0.0089,US,1569933011,1569975780,-18000,4696310,Harper,200,,,,8.2,,,,harper
1,,,,,,,,,,,,,,,,,,,,,,,,,,,404,,,,,city not found,,,mys shmidta
1,-22.43,63.84,802,Clouds,scattered clouds,03n,stations,278.15,1018,100,278.15,278.15,10000,3.1,130,40,1569906486,1,90,0.0061,IS,1569915429,1569956501,0,3416888,Grindavik,200,,,,,,,,grindavik
1,-69.36,77.48,500,Rain,light rain,10n,stations,274.5,1015.21,96,274.5,274.5,,4.77,80.913,100,1569906486,,,0.0085,GL,1569928125,1569966326,-10800,3831208,Qaanaaq,200,1015.21,977.35,,,,0.375,,qaanaaq
1,105.25,56.85,804,Clouds,overcast clouds,04d,stations,276.3,1023.84,79,276.3,276.3,,3.61,304.924,94,1569906486,,,0.0071,RU,1569884453,1569926205,28800,2055868,Yantal,200,1023.84,961.8,,,,,,yantal
1,-82.8,21.88,500,Rain,light rain,10n,stations,300.7,1009.69,78,300.7,300.7,,10.24,61.823,6,1569906487,,,0.0057,CU,1569928941,1569971960,-14400,3545867,Nueva Gerona,200,1009.69,1009.21,,,,0.5,,nueva gerona
1,-73.75,42.65,500,Rain,light rain,10n,stations,287.13,1020,100,285.15,289.15,11265,1.35,167.407,90,1569906487,1,5137,0.0117,US,1569927106,1569969452,-14400,5106834,Albany,200,,,0.25,,,,,albany
1,126.91,41.81,800,Clear,clear sky,01d,stations,296.7,1017.56,42,296.7,296.7,,1.89,229.938,0,1569906488,,,0.0059,CN,1569878895,1569921368,28800,2036069,Linjiang,200,1017.56,937.3,,,,,,linjiang
1,-73.98,45.63,501,Rain,moderate rain,10n,stations,282.06,1020,93,280.93,283.15,16093,3.1,50,90,1569906489,1,861,0.0115,CA,1569927223,1569969445,-14400,6138501,Saint-Augustin,200,,,3.3,,,,,saint-augustin
1,-151.75,-16.48,802,Clouds,scattered clouds,03n,stations,298.2,1016.32,80,298.2,298.2,,9.41,130.481,44,1569906489,,,0.0075,PF,1569858604,1569902625,-36000,4034551,Faanui,200,1016.32,1016.39,,,,,,faanui
1,127.67,26.12,803,Clouds,broken clouds,04d,stations,304.01,1012,70,303.15,305.15,10000,10.8,150,75,1569906489,1,8137,0.0082,JP,1569878473,1569921426,32400,1861280,Itoman,200,,,,,,,,itoman
1,48.8,-19.9,500,Rain,light rain,10d,stations,296.3,1018.04,89,296.3,296.3,,2.2,44.263,100,1569906490,,,0.0076,MG,1569896799,1569940949,10800,1062553,Mahanoro,200,1018.04,996.97,,,,0.25,,mahanoro
1,6.91,62.91,520,Rain,light intensity shower rain,09n,stations,279.18,990,81,275.93,281.15,10000,8.2,270,75,1569906491,1,1643,0.0061,NO,1569908328,1569949522,7200,7626370,Bud,200,,,,14.9,,,,bud
1,147.06,-42.78,802,Clouds,scattered clouds,03d,stations,288.99,1025,41,288.15,289.82,10000,5.1,150,33,1569906491,1,9545,0.0067,AU,1569872776,1569917818,36000,2155415,New Norfolk,200,,,,,,,,new norfolk
1,-95.98,19.05,800,Clear,clear sky,01n,stations,300.79,1012,74,300.37,301.15,11265,1,60,5,1569906491,1,7179,0.0062,MX,1569932065,1569975160,-18000,3532821,Anton Lizardo,200,,,,,,,,anton lizardo
1,-94.42,30.04,701,Mist,mist,50n,stations,298.53,1016,88,296.48,301.48,16093,2.3,119.547,1,1569906492,1,3476,0.0061,US,1569931849,1569974628,-18000,4732862,Nome,200,,,,,,,,nome
1,22.34,39.45,800,Clear,clear sky,01d,stations,289.91,1011,60,287.15,293.15,10000,3.6,300,0,1569906492,1,6607,0.0063,GR,1569903967,1569946478,10800,262462,Saint George,200,,,,,,,,saint george
1,125.51,12.18,803,Clouds,broken clouds,04d,stations,302.6,1009.97,69,302.6,302.6,,3.89,132.309,72,1569906492,,,0.0064,PH,1569878816,1569922119,28800,1688696,San Policarpo,200,1009.97,1008.77,,,,,,san policarpo
1,-139.03,-9.8,803,Clouds,broken clouds,04n,stations,299.4,1013.55,76,299.4,299.4,,7.06,107.701,54,1569906493,,,0.0075,PF,1569855643,1569899483,-34200,4020109,Atuona,200,1013.55,1013.61,,,,,,atuona
1,8.78,-0.72,804,Clouds,overcast clouds,04n,stations,298.2,1012.46,80,298.2,298.2,,4.71,191.582,99,1569906494,,,0.007,GA,1569906668,1569950285,3600,2396518,Port-Gentil,200,1012.46,1012.34,,,,,,port-gentil
1,-11.44,14.44,803,Clouds,broken clouds,04n,stations,300.5,1008.98,56,300.5,300.5,,3.91,246.678,51,1569906494,,,0.0064,ML,1569911713,1569954943,0,2455518,Kayes,200,1008.98,1001.53,,,,,,kayes
1,-161.76,60.79,802,Clouds,scattered clouds,03n,stations,281.15,1014,75,281.15,281.15,16093,2.6,330,40,1569906495,1,7640,0.006,US,1569862237,1569903796,-28800,5880568,Bethel,200,,,,,,,,bethel
1,,,,,,,,,,,,,,,,,,,,,,,,,,,404,,,,,city not found,,,tsihombe
1,26.89,-33.59,802,Clouds,scattered clouds,03d,stations,285.93,1023,94,285.93,285.93,,1.34,285,43,1569906495,3,2011314,0.0063,ZA,1569901805,1569946457,7200,964432,Port Alfred,200,,,,2.24,,,,port alfred
1,-10.79,7.88,803,Clouds,broken clouds,04n,stations,296.2,1012.23,94,296.2,296.2,,0.62,203.491,84,1569906496,,,0.0059,SL,1569911473,1569954871,0,2408399,Jojoima,200,1012.23,987.78,,,,,,jojoima
1,8.48,35.86,800,Clear,clear sky,01n,stations,285.15,1018,66,285.15,285.15,10000,1,120,0,1569906496,1,1075,0.0067,TN,1569907234,1569949862,3600,2469252,Manzil Salim,200,,,,,,,,manzil salim
1,-135.06,60.72,500,Rain,light rain,10n,stations,280.42,1008,93,278.71,281.15,24140,6.7,170,90,1569906473,1,983,0.0103,CA,1569855816,1569897405,-25200,6180550,Whitehorse,200,,,,,,,,whitehorse
1,42.45,18.39,800,Clear,clear sky,01d,stations,292.67,1024,39,292.15,293.15,10000,1.73,260.483,0,1569906496,1,7396,0.0073,SA,1569898829,1569941966,10800,110690,Faya,200,,,,,,,,faya
1,38.73,8.96,802,Clouds,scattered clouds,03d,stations,286.15,1026,93,286.15,286.15,10000,1,50,40,1569906497,1,2453,0.0057,ET,1569899603,1569942977,10800,344979,Lebu,200,,,,,,,,lebu
1,-0.6,45.6,803,Clouds,broken clouds,04n,stations,287.7,1011,93,286.48,288.71,10000,2.1,300,75,1569906497,1,6452,0.0063,FR,1569909596,1569951858,7200,3026644,Souillac,200,,,,,,,,souillac
1,57.76,-20.34,521,Rain,shower rain,09d,stations,296.32,1020,83,296.15,296.48,10000,6.2,70,75,1569906497,1,2061,0.0062,MU,1569894643,1569938805,14400,1106677,Bambous Virieux,200,,,,,,,,bambous virieux
1,138.6,-33.21,800,Clear,clear sky,01d,stations,300.3,1020.92,25,300.3,300.3,,4.18,24.994,0,1569906498,,,0.0056,AU,1569875028,1569919626,34200,2069194,Jamestown,200,1020.92,984.89,,,,,,jamestown
1,57.43,38.44,800,Clear,clear sky,01d,stations,290.5,1016.75,33,290.5,290.5,,3.3,88.713,6,1569906498,,,0.0061,TM,1569895523,1569938083,18000,162158,Baherden,200,1016.75,906.42,,,,,,baherden
1,-58.16,6.8,500,Rain,light rain,10n,stations,298.6,1008.55,92,298.6,298.6,,2.41,50.547,24,1569906473,,,0.0078,GY,1569922827,1569966249,-14400,3378644,Georgetown,200,1008.55,1006.65,,,,0.876,,georgetown
1,27.91,-33.02,800,Clear,clear sky,01d,stations,287.15,1023,71,287.15,287.15,10000,5.7,280,0,1569906217,1,1912,0.0062,ZA,1569901573,1569946200,7200,1006984,East London,200,,,,,,,,east london
1,-133.03,69.44,802,Clouds,scattered clouds,03n,stations,279.15,1002,87,279.15,279.15,24140,6.7,270,40,1569906499,1,942,0.007,CA,1569855769,1569896478,-21600,6170031,Tuktoyaktuk,200,,,,9.3,,,,tuktoyaktuk
1,-15.21,64.25,800,Clear,clear sky,01n,stations,268.6,1019.12,78,268.6,268.6,,4.68,331.309,0,1569906499,,,0.0069,IS,1569913714,1569954752,0,2630299,Hofn,200,1019.12,921.32,,,,,,hofn
1,-73.76,-42.48,801,Clouds,few clouds,02n,stations,275.15,1015,100,275.15,275.15,10000,2.1,260,20,1569906499,1,8512,0.0054,CL,1569925716,1569970846,-10800,3896218,Castro,200,,,,,,,,castro
1,-68.31,-54.81,804,Clouds,overcast clouds,04n,stations,274.15,1000,80,274.15,274.15,5000,6.7,230,90,1569906286,1,8303,0.007,AR,1569923952,1569969995,-10800,3833367,Ushuaia,200,,,,,,,,ushuaia
1,-6.81,61.47,500,Rain,light rain,10n,stations,279.7,1011.01,72,279.7,279.7,,9.4,357.708,92,1569906500,,,0.0094,FO,1569911562,1569952872,3600,2610806,Vagur,200,1011.01,1010.28,,,,0.187,,vagur
1,54.1,17.01,803,Clouds,broken clouds,04d,stations,300.15,1012,74,300.15,300.15,10000,4.1,210,75,1569906500,1,7562,0.0062,OM,1569896015,1569939189,14400,286621,Salalah,200,,,,,,,,salalah
1,115.35,-33.64,800,Clear,clear sky,01d,stations,295.1,1013,35,294.82,295.37,,2.19,310.891,0,1569906501,3,2011706,0.0062,AU,1569880594,1569925217,28800,2075265,Busselton,200,,,,,,,,busselton
1,114.09,71.97,804,Clouds,overcast clouds,04d,stations,271.8,1011.38,89,271.8,271.8,,4.74,326.678,97,1569906501,,,0.006,RU,1569883144,1569923271,32400,2017155,Saskylakh,200,1011.38,1000.98,,,,,,saskylakh
1,-46.05,60.91,803,Clouds,broken clouds,04n,stations,284.15,1010,29,284.15,284.15,,12.9,60,52,1569906501,1,47,0.0056,GL,1569920972,1569962293,-7200,3421719,Narsaq,200,,,,,,,,narsaq
1,169.85,-46.28,803,Clouds,broken clouds,04d,stations,282.04,1006,55,282.04,282.04,,3.13,248,80,1569906502,3,2000217,0.0064,NZ,1569867213,1569912444,46800,2208248,Kaitangata,200,,,,7.6,,,,kaitangata
1,,,,,,,,,,,,,,,,,,,,,,,,,,,404,,,,,city not found,,,tabiauea
1,-8.45,37.14,800,Clear,clear sky,01n,stations,291.55,1015,77,289.26,292.59,10000,2.1,320,0,1569906502,1,6892,0.0065,PT,1569911321,1569953900,3600,2267254,Lagoa,200,,,,,,,,lagoa
1,-91.92,50.1,300,Drizzle,light intensity drizzle,09n,stations,278.15,1010,93,278.15,278.15,4828,1.5,50,90,1569906502,1,979,0.0104,CA,1569931640,1569973638,-18000,6148373,Sioux Lookout,200,,,,,,,,sioux lookout
1,-61.77,16.06,800,Clear,clear sky,01n,stations,298.15,1012,88,298.15,298.15,10000,0.5,50,0,1569906503,1,8780,0.0054,GP,1569923814,1569966995,-14400,3578278,Vieux-Habitants,200,,,,,,,,vieux-habitants
1,112.04,40.71,801,Clouds,few clouds,02d,stations,296.15,1016,49,296.15,296.15,10000,3,240,20,1569906503,1,9612,0.0083,CN,1569882447,1569924953,28800,2052479,Zhuhai,200,,,,,,,,zhuhai
1,125.69,42.54,800,Clear,clear sky,01d,stations,298.8,1016.59,46,298.8,298.8,,4.69,212.999,0,1569906503,,,0.0064,CN,1569879202,1569921648,28800,2035801,Meihekou,200,1016.59,972.31,,,,,,meihekou
1,139.49,-20.73,800,Clear,clear sky,01d,stations,308.15,1018,9,308.15,308.15,10000,3.6,130,0,1569906504,1,9495,0.0082,AU,1569875034,1569919193,36000,2065594,Mount Isa,200,,,,,,,,mount isa
1,-147.72,64.84,500,Rain,light rain,10n,stations,277.97,1010,87,275.93,280.15,16093,1.5,80,75,1569906378,1,7684,0.0093,US,1569859034,1569900261,-28800,5861897,Fairbanks,200,,,0.25,,,,,fairbanks
1,-156.47,20.89,802,Clouds,scattered clouds,03n,stations,297.93,1013,74,295.37,300.15,16093,8.7,50,40,1569906504,1,7879,0.0076,US,1569860195,1569903299,-36000,5847411,Kahului,200,,,,,,,,kahului
1,124.8,56.8,804,Clouds,overcast clouds,04d,stations,273.2,1013.41,92,273.2,273.2,,5.13,319.171,100,1569906504,,,0.0062,RU,1569879753,1569921523,32400,2016977,Serebryanyy Bor,200,1013.41,915.14,,,,,,serebryanyy bor
1,86.18,69.41,803,Clouds,broken clouds,04d,stations,272.15,1013,92,272.15,272.15,10000,5,150,75,1569906505,1,8951,0.0087,RU,1569889646,1569930164,25200,1507116,Dudinka,200,,,,,,,,dudinka
1,-66.38,50.2,803,Clouds,broken clouds,04n,stations,275.15,1023,69,275.15,275.15,24140,3.1,310,75,1569906505,1,1013,0.008,CA,1569925506,1569967515,-14400,6144312,Sept-Iles,200,,,,,,,,sept-iles
1,-114.04,27.97,800,Clear,clear sky,01n,stations,292.7,1009.57,75,292.7,292.7,,9.2,317.9,0,1569906505,,,0.0056,MX,1569850099,1569893034,-21600,4021858,Guerrero Negro,200,1009.57,1009.99,,,,,,guerrero negro
1,-70.49,-25.41,801,Clouds,few clouds,02n,stations,282.4,1016.52,93,282.4,282.4,,0.52,217.221,22,1569906506,,,0.0057,CL,1569925316,1569969677,-10800,3870243,Taltal,200,1016.52,970.28,,,,,,taltal
1,,,,,,,,,,,,,,,,,,,,,,,,,,,404,,,,,city not found,,,araguacu
1,,,,,,,,,,,,,,,,,,,,,,,,,,,404,,,,,city not found,,,burica
1,,,,,,,,,,,,,,,,,,,,,,,,,,,404,,,,,city not found,,,cumaribo
1,,,,,,,,,,,,,,,,,,,,,,,,,,,404,,,,,city not found,,,bengkulu
1,30.79,59.7,520,Rain,light intensity shower rain,09d,stations,284.24,983,93,283.71,284.82,8000,3,120,90,1569906507,1,8926,0.007,RU,1569902450,1569943940,10800,546105,Nikolskoye,200,,,,,,,,nikolskoye
1,82.83,58.36,803,Clouds,broken clouds,04d,stations,276.6,1024,86,276.6,276.6,,4.69,216.591,83,1569906507,,,0.0058,RU,1569889892,1569931525,25200,1489499,Togur,200,1024,1017.01,,,,,,togur
1,116.67,-31.65,802,Clouds,scattered clouds,03d,stations,294.15,1020,49,294.15,294.15,10000,2.6,280,40,1569906507,1,9569,0.0062,AU,1569880318,1569924860,28800,2064550,Northam,200,,,,,,,,northam
1,,,,,,,,,,,,,,,,,,,,,,,,,,,404,,,,,city not found,,,karamea
1,-64.29,-36.62,802,Clouds,scattered clouds,03n,stations,282.8,1012.58,28,282.8,282.8,,4.85,177.826,26,1569906029,,,0.0079,AR,1569923599,1569968419,-10800,3835994,Santa Rosa,200,1012.58,986.84,,,,,,santa rosa
1,-67.48,-45.87,800,Clear,clear sky,01n,stations,278.15,1009,56,278.15,278.15,10000,1,230,0,1569906508,1,8284,0.0067,AR,1569924108,1569969441,-10800,3860443,Comodoro Rivadavia,200,,,,,,,,comodoro rivadavia
1,161.3,68.75,804,Clouds,overcast clouds,04d,stations,270.7,1002.68,88,270.7,270.7,,4.98,320.362,95,1569906509,,,0.0074,RU,1569871523,1569912238,39600,2126199,Cherskiy,200,1002.68,1002.21,,,,,,cherskiy
1,136.64,50.72,803,Clouds,broken clouds,04d,stations,289.5,1012.5,60,289.5,289.5,,3.6,118.333,53,1569906509,,,0.006,RU,1569876742,1569918853,36000,2016307,Solnechnyy,200,1012.5,983.64,,,,,,solnechnyy
1,22.7,-20.47,800,Clear,clear sky,01d,stations,291.2,1017.45,23,291.2,291.2,,6.41,147.178,6,1569906509,,,0.0063,BW,1569903050,1569947223,7200,933109,Sehithwa,200,1017.45,911.43,,,,,,sehithwa
1,9.75,10.31,500,Rain,light rain,10n,stations,295.2,1012.4,90,295.2,295.2,,1.61,213.848,29,1569906510,,,0.0072,NG,1569906575,1569949913,3600,2347470,Miri,200,1012.4,944.81,,,,0.313,,miri
1,-109.91,22.89,501,Rain,moderate rain,10n,stations,295.3,1012,77,293.71,297.04,11265,4.1,260,90,1569906510,1,7165,0.0061,MX,1569849043,1569892108,-21600,3985710,Cabo San Lucas,200,,,,,,,,cabo san lucas
1,38.95,61.51,500,Rain,light rain,10d,stations,282,989.99,96,282,282,,2.9,100.054,100,1569906510,,,0.0072,RU,1569900562,1569941913,10800,552465,Kargopol,200,989.99,972.33,,,,0.125,,kargopol
1,19.24,-34.42,800,Clear,clear sky,01d,stations,285.37,1021,74,285.37,285.37,,4.35,62.115,0,1569906511,3,2003650,0.0059,ZA,1569903622,1569948311,7200,3366880,Hermanus,200,,,,,,,,hermanus
1,,,,,,,,,,,,,,,,,,,,,,,,,,,404,,,,,city not found,,,barentsburg
1,18.72,63.29,500,Rain,light rain,10d,stations,276.05,977,100,275.15,277.15,10000,5.1,10,90,1569906511,1,1768,0.0059,SE,1569905506,1569946676,7200,2686469,Ornskoldsvik,200,,,,,,,,ornskoldsvik
1,-52.33,4.94,800,Clear,clear sky,01n,stations,298.15,1009,94,298.15,298.15,10000,1.38,117.824,0,1569906512,1,8669,0.0082,GF,1569921404,1569964875,-10800,3382160,Cayenne,200,,,,,,,,cayenne
1,125.41,-8.93,800,Clear,clear sky,01d,stations,301.6,1011.7,56,301.6,301.6,,3.5,326.765,3,1569906513,,,0.0063,TL,1569878579,1569922405,32400,1651810,Airai,200,1011.7,976.71,,,,,,airai
1,12.15,-15.19,804,Clouds,overcast clouds,04d,stations,290.9,1013.06,84,290.9,290.9,,1.48,228.283,100,1569906513,,,0.0066,AO,1569905661,1569949674,3600,3347019,Namibe,200,1013.06,1013.19,,,,,,namibe
1,156.12,50.68,802,Clouds,scattered clouds,03d,stations,280.4,1018.37,80,280.4,280.4,,4.65,263.622,47,1569906513,,,0.0064,RU,1569872061,1569914186,39600,2121385,Severo-Kurilsk,200,1018.37,1018.31,,,,,,severo-kurilsk
1,-72.74,-8.27,500,Rain,light rain,10n,stations,295.1,1006.9,97,295.1,295.1,,1.1,37.638,100,1569906514,,,0.0079,BR,1569926125,1569969948,-18000,3662761,Porto Walter,200,1006.9,979.54,,,,0.188,,porto walter
1,-86.95,49.72,500,Rain,light rain,10n,stations,279.15,1009,93,279.15,279.15,2414,3.6,60,90,1569906514,1,810,0.0071,CA,1569930436,1569972457,-14400,5960603,Geraldton,200,,,,,,,,geraldton
1,-51.1,69.22,803,Clouds,broken clouds,04n,stations,275.15,1015,64,275.15,275.15,,2.6,,63,1569906515,1,165,0.0067,GL,1569922665,1569963023,-7200,3423146,Ilulissat,200,,,,,,,,ilulissat
1,-74.98,39.31,804,Clouds,overcast clouds,04n,stations,291.53,1023,77,289.82,293.15,16093,1.79,148.97,90,1569906515,1,9745,0.008,US,1569927337,1569969811,-14400,4501427,Port Elizabeth,200,,,,,,,,port elizabeth
1,-120.46,34.64,800,Clear,clear sky,01n,stations,284.89,1013,66,282.04,287.15,16093,7.21,329.066,1,1569906515,1,4558,0.0097,US,1569851732,1569894482,-25200,5367788,Lompoc,200,,,,,,,,lompoc
1,140.83,35.73,803,Clouds,broken clouds,04d,stations,302.56,1019,61,298.15,307.04,10000,2.1,,75,1569906516,1,7955,0.0061,JP,1569875451,1569918133,32400,2112802,Hasaki,200,,,,,,,,hasaki
1,102.79,35.32,800,Clear,clear sky,01d,stations,286.4,1007.45,34,286.4,286.4,,1.28,318.099,0,1569906517,,,0.0058,CN,1569884579,1569927259,28800,7413703,Madang,200,1007.45,662.5,,,,,,madang
1,50.28,-14.9,500,Rain,light rain,10d,stations,295.4,1017.51,92,295.4,295.4,,1.59,76.735,84,1569906519,,,0.0063,MG,1569896519,1569940518,10800,1071296,Antalaha,200,1017.51,969.56,,,,1.062,,antalaha
1,115.24,5.28,803,Clouds,broken clouds,04d,stations,302.62,1012,70,302.04,303.15,10000,2.1,,75,1569906520,1,9372,0.0076,BN,1569881197,1569924667,28800,1733782,Victoria,200,,,,,,,,victoria
1,147.9,70.62,804,Clouds,overcast clouds,04d,stations,270.5,1002.54,80,270.5,270.5,,7.43,254.245,94,1569906520,,,0.0064,RU,1569874887,1569915304,39600,2126123,Chokurdakh,200,1002.54,1000.93,,,,,,chokurdakh
1,-81.71,43.74,500,Rain,light rain,10n,stations,292.51,1012,87,289.82,295.37,,1.34,208,3,1569906520,3,2008021,0.0065,CA,1569929040,1569971338,-14400,5962442,Goderich,200,,,,5.36,,0.562,,goderich
1,-3.53,18.9,801,Clouds,few clouds,02n,stations,304.1,1008.42,11,304.1,304.1,,5.68,34.961,21,1569906521,,,0.0077,ML,1569909872,1569952988,0,2460954,Araouane,200,1008.42,976.05,,,,,,araouane
1,-35.46,-5.2,801,Clouds,few clouds,02n,stations,296.15,1012,83,296.15,296.15,10000,2.1,160,20,1569906521,1,8452,0.0064,BR,1569917223,1569960960,-10800,3386213,Touros,200,,,,,,,,touros
1,-135.9,63.59,804,Clouds,overcast clouds,04n,stations,279.15,1010,75,279.15,279.15,24140,0.46,37.962,90,1569906521,1,858,0.0105,CA,1569856134,1569897490,-25200,6068416,Mayo,200,,,,,,,,mayo
1,159.59,-8.15,500,Rain,light rain,10d,stations,301.1,1009.86,77,301.1,301.1,,3.89,112.135,100,1569906522,,,0.0073,SB,1569870389,1569914192,39600,2109528,Buala,200,1009.86,1000.84,,,,1.876,,buala
1,164.9,-21.12,804,Clouds,overcast clouds,04d,stations,295.8,1018.95,75,295.8,295.8,,11.54,145.098,100,1569906522,,,0.006,NC,1569868934,1569913099,39600,2138592,Pouembout,200,1018.95,1017.51,,,,,,pouembout
1,166.44,68.06,804,Clouds,overcast clouds,04d,stations,268.8,999.83,97,268.8,268.8,,1.68,342.817,100,1569906523,,,0.0066,RU,1569870241,1569911053,43200,2126682,Bilibino,200,999.83,915.3,,,,,,bilibino
1,,,,,,,,,,,,,,,,,,,,,,,,,,,404,,,,,city not found,,,nizhneyansk
1,,,,,,,,,,,,,,,,,,,,,,,,,,,404,,,,,city not found,,,grand centre
1,143.24,59.36,802,Clouds,scattered clouds,03d,stations,279.3,1009.17,48,279.3,279.3,,4.29,185.968,32,1569906523,,,0.0061,RU,1569875406,1569917021,36000,2122605,Okhotsk,200,1009.17,1004.69,,,,,,okhotsk
1,149.58,-33.42,800,Clear,clear sky,01d,stations,290.9,1025.77,46,290.9,290.9,,0.5,195.945,0,1569906256,,,0.0065,AU,1569872391,1569916993,36000,2176632,Bathurst,200,1025.77,933.83,,,,,,bathurst
1,,,,,,,,,,,,,,,,,,,,,,,,,,,404,,,,,city not found,,,bilaua
1,-50.01,-29.75,800,Clear,clear sky,01n,stations,290.5,1008.36,88,290.5,290.5,,1.58,71.358,0,1569906524,,,0.0065,BR,1569920323,1569964842,-10800,3467362,Capao da Canoa,200,1008.36,1004.61,,,,,,capao da canoa
1,146.19,68.54,800,Clear,clear sky,01d,stations,272.3,1006.29,54,272.3,272.3,,3.86,252.401,0,1569906525,,,0.0058,RU,1569875144,1569915867,39600,2126785,Belaya Gora,200,1006.29,1000.33,,,,,,belaya gora
1,134.5,33.93,803,Clouds,broken clouds,04d,stations,300.6,1018,74,300.15,301.15,10000,4.6,130,75,1569906525,1,8027,0.0081,JP,1569876944,1569919678,32400,1865309,Katsuura,200,,,,,,,,katsuura
1,29.2,-5.95,500,Rain,light rain,10d,stations,295.7,1013.35,73,295.7,295.7,,1.88,325.378,45,1569906526,,,0.0058,CD,1569901700,1569945454,7200,214974,Kalemie,200,1013.35,891.01,,,,0.874,,kalemie
1,120.21,-3.46,501,Rain,moderate rain,10d,stations,294.2,1009.96,89,294.2,294.2,,0.95,138.928,96,1569906526,,,0.0068,ID,1569879897,1569923582,28800,1638368,Kaili,200,1009.96,851.75,,,,3.874,,kaili
1,26.69,13.6,804,Clouds,overcast clouds,04d,stations,299.4,1011.42,61,299.4,299.4,,4.95,192.092,99,1569906527,,,0.0063,SD,1569902551,1569945807,7200,364933,Umm Kaddadah,200,1011.42,936.95,,,,,,umm kaddadah
1,-15.98,18.08,800,Clear,clear sky,01n,stations,299.15,1009,88,299.15,299.15,10000,4.6,310,0,1569906527,1,2482,0.0081,MR,1569912850,1569955985,0,2377450,Nouakchott,200,,,,,,,,nouakchott
1,153.71,67.46,804,Clouds,overcast clouds,04d,stations,271.5,1006.96,72,271.5,271.5,,3.47,277.691,95,1569906527,,,0.0075,RU,1569873266,1569914137,39600,2121025,Srednekolymsk,200,1006.96,1002.92,,,,,,srednekolymsk
1,126.3,45.37,800,Clear,clear sky,01d,stations,300.5,1012,51,299.82,301.15,10000,8,200,0,1569906528,1,9678,0.0057,CN,1569879109,1569921447,28800,2034834,Shuangcheng,200,,,,,,,,shuangcheng
1,88.39,69.49,803,Clouds,broken clouds,04d,stations,272.15,1013,92,272.15,272.15,10000,5,150,75,1569906528,1,8951,0.0058,RU,1569889120,1569929629,25200,1490256,Talnakh,200,,,,,,,,talnakh
1,-99.65,37.17,500,Rain,light rain,10n,stations,297.61,959,79,297.04,298.15,,8.94,340,100,1569906529,3,2021131,0.0075,US,1569933223,1569975764,-18000,4267710,Sitka,200,,,,11.18,,1.937,,sitka
1,7.78,5.52,804,Clouds,overcast clouds,04n,stations,296.2,1012.2,94,296.2,296.2,,0.65,210.384,100,1569906529,,,0.0056,NG,1569906987,1569950446,3600,2347303,Okrika,200,1012.2,999.67,,,,,,okrika
1,2.77,36.27,800,Clear,clear sky,01n,stations,287.15,1014,82,287.15,287.15,10000,1.63,176.691,0,1569906529,1,1060,0.0059,DZ,1569908612,1569951225,3600,2488835,Medea,200,,,,,,,,medea
1,,,,,,,,,,,,,,,,,,,,,,,,,,,404,,,,,city not found,,,garm
1,-73.83,-41.87,801,Clouds,few clouds,02n,stations,275.15,1015,100,275.15,275.15,10000,2.1,260,20,1569906530,1,8512,0.0063,CL,1569925750,1569970846,-10800,3899695,Ancud,200,,,,,,,,ancud
1,-52.73,47.66,520,Rain,light intensity shower rain,09n,stations,279.25,1010,87,278.71,279.82,24140,9.8,310,90,1569906530,1,998,0.0066,CA,1569922165,1569964306,-9000,6167817,Torbay,200,,,,,,,,torbay
1,-56.15,72.79,801,Clouds,few clouds,02n,stations,276.2,1016.59,65,276.2,276.2,,3.28,100.817,19,1569906531,,,0.0061,GL,1569924218,1569963894,-7200,3418910,Upernavik,200,1016.59,1016.39,,,,,,upernavik
1,,,,,,,,,,,,,,,,,,,,,,,,,,,404,,,,,city not found,,,pafos
1,126.19,9.28,803,Clouds,broken clouds,04d,stations,301.9,1009.67,70,301.9,301.9,,5.35,105.466,65,1569906531,,,0.0061,PH,1569878618,1569921991,28800,1716788,Cortes,200,1009.67,1006.79,,,,,,cortes
1,125.46,5.4,803,Clouds,broken clouds,04d,stations,301.6,1009.7,74,301.6,301.6,,6.42,128.693,66,1569906531,,,0.0066,PH,1569878746,1569922213,28800,1687186,Sarangani,200,1009.7,1009.56,,,,,,sarangani
1,24.66,14.2,803,Clouds,broken clouds,04d,stations,297.3,1011.62,66,297.3,297.3,,4.5,126.799,67,1569906532,,,0.0054,SD,1569903045,1569946287,7200,371745,Kutum,200,1011.62,883.83,,,,,,kutum
1,169.27,-19.55,803,Clouds,broken clouds,04d,stations,300.15,1016,65,300.15,300.15,10000,7.2,160,75,1569906532,1,7317,0.0061,VU,1569867909,1569912026,39600,2136825,Isangel,200,,,,,,,,isangel
1,7.07,5.43,804,Clouds,overcast clouds,04n,stations,296.3,1012.16,93,296.3,296.3,,0.78,179.705,93,1569906532,,,0.006,NG,1569907156,1569950617,3600,2337542,Naze,200,1012.16,1002.25,,,,,,naze
1,29.55,57.77,500,Rain,light rain,10d,stations,285.15,987,87,285.15,285.15,9000,5,250,100,1569906533,1,8928,0.0053,RU,1569902678,1569944307,10800,506278,Porkhov,200,,,,,,1.563,,porkhov
1,,,,,,,,,,,,,,,,,,,,,,,,,,,404,,,,,city not found,,,grand river south east
1,,,,,,,,,,,,,,,,,,,,,,,,,,,404,,,,,city not found,,,bargal
1,29.48,-3.48,801,Clouds,few clouds,02d,stations,292.15,1011,93,292.15,292.15,7000,0.95,141.094,20,1569906534,1,2493,0.0051,BI,1569901665,1569945354,7200,425378,Matara,200,,,,,,,,matara
1,22.29,55.25,804,Clouds,overcast clouds,04d,stations,281.1,999.04,75,281.1,281.1,,2.39,273.454,100,1569906534,,,0.0074,LT,1569904341,1569946128,10800,593959,Taurage,200,999.04,987.45,,,,,,taurage
1,7.39,18.74,803,Clouds,broken clouds,04n,stations,303.9,1011.08,16,303.9,303.9,,4.8,89.594,52,1569906535,,,0.0066,NE,1569907249,1569950371,3600,2447513,Arlit,200,1011.08,964.41,,,,,,arlit
1,,,,,,,,,,,,,,,,,,,,,,,,,,,404,,,,,city not found,,,dzhusaly
1,-102.62,38.09,800,Clear,clear sky,01n,stations,298.15,1008,57,298.15,298.15,16093,11.8,200,1,1569906535,1,4652,0.0065,US,1569847499,1569890153,-21600,5427957,Lamar,200,,,,15.9,,,,lamar
1,78.53,29.75,301,Drizzle,drizzle,09d,stations,297.15,1014,88,297.15,297.15,3000,2.1,80,90,1569906536,1,9162,0.0067,IN,1569890321,1569933160,19800,1266014,Kotdwara,200,,,,,,,,kotdwara
1,27.56,53.9,802,Clouds,scattered clouds,03d,stations,284.15,997,76,284.15,284.15,10000,9,280,40,1569906536,1,8939,0.0061,BY,1569903035,1569944906,10800,625144,Minsk,200,,,,12,,,,minsk
1,-8.45,54.63,500,Rain,light rain,10n,stations,283.71,1000,93,283.71,283.71,,3.13,41,100,1569906537,3,2012815,0.0058,IE,1569911710,1569953512,3600,2963295,Killybegs,200,,,,5.36,,0.375,,killybegs
1,15.63,78.22,801,Clouds,few clouds,02n,stations,271.15,1026,68,271.15,271.15,10000,7.7,120,20,1569906537,1,1663,0.0058,NO,1569907792,1569945874,7200,2729907,Longyearbyen,200,,,,,,,,longyearbyen
1,-67.49,6.19,804,Clouds,overcast clouds,04n,stations,298.2,1007.91,84,298.2,298.2,,0.94,91.578,89,1569906538,,,0.0071,CO,1569925058,1569968496,-18000,3671519,Puerto Carreno,200,1007.91,1000.23,,,,,,puerto carreno
1,-96.99,50.56,500,Rain,light rain,10n,stations,276.43,1016,99,275.93,277.04,,5.73,328.697,100,1569906539,3,19218,0.0072,CA,1569932870,1569974841,-18000,5961417,Husavik,200,,,,,,0.813,,husavik
1,-81.25,19.28,500,Rain,light rain,10n,stations,300.37,1007,85,300.37,300.37,,4.47,57,86,1569906539,3,2021106,0.0065,KY,1569928533,1569971624,-18000,3580733,Bodden Town,200,,,,7.6,,0.188,,bodden town
1,128.74,-15.77,803,Clouds,broken clouds,04d,stations,311.15,1012,22,311.15,311.15,10000,5.7,10,58,1569906539,1,9587,0.0061,AU,1569877686,1569921699,28800,2068110,Kununurra,200,,,,,,,,kununurra
1,,,,,,,,,,,,,,,,,,,,,,,,,,,404,,,,,city not found,,,belushya guba
1,-51.95,-2.59,800,Clear,clear sky,01n,stations,298.4,1007.72,76,298.4,298.4,,2.7,50.102,2,1569906540,,,0.0064,BR,1569921214,1569964882,-10800,3387928,Senador Jose Porfirio,200,1007.72,1004.1,,,,,,senador jose porfirio
1,82.18,29.28,500,Rain,light rain,10d,stations,290.3,1015.74,56,290.3,290.3,,2.4,267.228,77,1569906540,,,0.0061,NP,1569889438,1569932291,20700,1283285,Jumla,200,1015.74,724.76,,,,0.126,,jumla
1,10.55,1.44,803,Clouds,broken clouds,04d,stations,292.7,1013.17,96,292.7,292.7,,0.4,288.252,81,1569906541,,,0.0071,GQ,1569906271,1569949833,3600,2308994,Evinayong,200,1013.17,935.85,,,,,,evinayong
1,150.8,-2.57,804,Clouds,overcast clouds,04d,stations,302.4,1009.53,69,302.4,302.4,,4.08,57.113,100,1569906541,,,0.0065,PG,1569872568,1569916231,36000,2094342,Kavieng,200,1009.53,1008.76,,,,,,kavieng
1,,,,,,,,,,,,,,,,,,,,,,,,,,,404,,,,,city not found,,,chagda
1,131.63,43.95,800,Clear,clear sky,01d,stations,302.3,1016.8,34,302.3,302.3,,2.05,208.142,0,1569906542,,,0.0069,RU,1569877801,1569920197,36000,2017838,Pokrovka,200,1016.8,1001.32,,,,,,pokrovka
1,39.83,-4.97,501,Rain,moderate rain,10d,stations,299.6,1013.78,83,299.6,299.6,,2.6,154.599,98,1569906542,,,0.0058,TZ,1569899162,1569942890,10800,153955,Micheweni,200,1013.78,1013.54,,,,3.938,,micheweni
1,122.53,-4.94,500,Rain,light rain,10d,stations,303.8,1010.82,54,303.8,303.8,,1.15,47.477,55,1569906543,,,0.0061,ID,1569879321,1569923044,28800,1640972,Katobu,200,1010.82,1001.41,,,,0.188,,katobu
1,120.44,41.58,800,Clear,clear sky,01d,stations,302.9,1012.76,24,302.9,302.9,,7.7,207.75,0,1569906543,,,0.009,CN,1569880445,1569922923,28800,2038120,Chaoyang,200,1012.76,957.08,,,,,,chaoyang
1,-124.16,40.6,802,Clouds,scattered clouds,03n,stations,280.81,1018,93,279.82,282.04,16093,1.5,210,40,1569906447,1,4127,0.0109,US,1569852713,1569895277,-25200,5563839,Fortuna,200,,,,,,,,fortuna
1,100.36,-0.92,803,Clouds,broken clouds,04d,stations,299,1010.9,84,299,299,,5.7,182.975,60,1569906544,,,0.005,ID,1569884691,1569928313,25200,1633419,Padang,200,1010.9,1010.95,,,,,,padang
1,-17.03,20.93,701,Mist,mist,50n,stations,292.15,1011,93,292.15,292.15,2000,4.6,360,90,1569906544,1,2444,0.0072,MR,1569913140,1569956199,0,2377457,Nouadhibou,200,,,,,,,,nouadhibou
1,-104.67,23.99,803,Clouds,broken clouds,04n,stations,285.4,1013.18,92,285.4,285.4,,4.26,231.474,80,1569906545,,,0.0088,MX,1569934220,1569977176,-18000,4011743,Constitucion,200,1013.18,757.96,,,,,,constitucion
1,,,,,,,,,,,,,,,,,,,,,,,,,,,404,,,,,city not found,,,halalo
1,-110.26,52.35,803,Clouds,broken clouds,04n,stations,270,1023.81,96,270,270,,1.93,157.659,76,1569906344,,,0.0051,CA,1569849606,1569891713,-21600,6113828,Provost,200,1023.81,941.19,,,,,,provost
1,-68.39,-31.67,800,Clear,clear sky,01n,stations,286.4,1008.75,31,286.4,286.4,,7.54,193,0,1569906546,,,0.0078,AR,1569924692,1569969294,-10800,3842882,Nueve de Julio,200,1008.75,940.82,,,,,,nueve de julio
1,-70.73,-32.75,803,Clouds,broken clouds,04n,stations,280.37,932,99,280.37,280.37,,0.45,225,59,1569906546,3,2000076,0.0058,CL,1569925230,1569969879,-10800,3872255,San Felipe,200,,,,1.34,,,,san felipe
1,-64.62,18.42,801,Clouds,few clouds,02n,stations,301.06,1012,74,299.82,302.15,16093,4.1,120,20,1569906447,1,8786,0.0069,VG,1569924529,1569967647,-14400,3577430,Road Town,200,,,,,,,,road town
1,-20.27,63.44,500,Rain,light rain,10n,stations,282,1018.44,81,282,282,,5.71,228.336,100,1569906547,,,0.0073,IS,1569914889,1569956004,0,3412093,Vestmannaeyjar,200,1018.44,1017.96,,,,0.188,,vestmannaeyjar
1,57.7,-20.41,521,Rain,shower rain,09d,stations,296.61,1020,83,296.15,297.04,10000,6.2,70,75,1569906547,1,2061,0.0089,MU,1569894656,1569938821,14400,934322,Mahebourg,200,,,,,,,,mahebourg
1,-50.22,-30.17,800,Clear,clear sky,01n,stations,291.8,1007.54,86,291.8,291.8,,4.6,41.472,0,1569906547,,,0.0065,BR,1569920365,1569964901,-10800,3466165,Cidreira,200,1007.54,1006.55,,,,,,cidreira
1,-56.46,-30.4,801,Clouds,few clouds,02n,stations,297.6,1000.29,45,297.6,297.6,,6.85,21.183,16,1569906548,,,0.0064,BR,1569921857,1569966404,-10800,3443758,Artigas,200,1000.29,981.61,,,,,,artigas
1,95.45,55.64,804,Clouds,overcast clouds,04d,stations,278.2,1028.2,70,278.2,278.2,,4.64,257.469,99,1569906548,,,0.0067,RU,1569886771,1569928590,25200,1505529,Irbeyskoye,200,1028.2,990.45,,,,,,irbeyskoye
1,-42.02,-22.97,804,Clouds,overcast clouds,04n,stations,293.1,1017.98,83,293.1,293.1,,8.14,63.171,89,1569906548,,,0.0085,BR,1569918531,1569962800,-10800,3471451,Arraial do Cabo,200,1017.98,1016.36,,,,,,arraial do cabo
1,151.78,-32.93,802,Clouds,scattered clouds,03d,stations,292.75,1028,49,290.93,294.26,10000,7.2,100,40,1569906356,1,9605,0.009,AU,1569871874,1569916455,36000,2155472,Newcastle,200,,,,,,,,newcastle
1,-59.52,13.22,801,Clouds,few clouds,02n,stations,301.15,1011,74,301.15,301.15,10000,5.1,100,20,1569906549,1,8772,0.0056,BB,1569923237,1569966492,-14400,3374083,Bathsheba,200,,,,,,,,bathsheba
1,,,,,,,,,,,,,,,,,,,,,,,,,,,404,,,,,city not found,,,amderma
1,150.18,-35.71,800,Clear,clear sky,01d,stations,292.89,1026,70,290.93,294.82,,4.02,2,0,1569906550,3,2010627,0.0091,AU,1569872199,1569916897,36000,2176639,Batemans Bay,200,,,,8.05,,,,batemans bay
1,-58.74,-38.55,804,Clouds,overcast clouds,04n,stations,282.59,1010,89,282.59,282.59,,0.89,180,98,1569906507,3,2019717,0.0059,AR,1569922221,1569967134,-10800,3430443,Necochea,200,,,,1.79,,,,necochea
1,-57.8,-18.96,800,Clear,clear sky,01n,stations,301.7,1003.74,47,301.7,301.7,,2.71,27.075,0,1569906550,,,0.0096,BO,1569922382,1569966522,-14400,3465342,Puerto Suarez,200,1003.74,990.57,,,,,,puerto suarez
1,47.05,37.48,800,Clear,clear sky,01d,stations,289.1,1014.44,51,289.1,289.1,,1.04,148.45,0,1569906551,,,0.0058,IR,1569897999,1569940588,12600,142554,Hashtrud,200,1014.44,828.37,,,,,,hashtrud
1,-77.61,-11.1,804,Clouds,overcast clouds,04n,stations,289.6,1015.22,93,289.6,289.6,,5.01,163.134,89,1569906551,,,0.0066,PE,1569927253,1569971157,-18000,3939761,Hualmay,200,1015.22,1013.61,,,,,,hualmay
1,,,,,,,,,,,,,,,,,,,,,,,,,,,404,,,,,city not found,,,toliary
1,51.68,43.18,801,Clouds,few clouds,02d,stations,291.8,1017.07,34,291.8,291.8,,7.03,133.801,19,1569906552,,,0.0064,KZ,1569896990,1569939376,18000,609919,Kuryk,200,1017.07,1021.4,,,,,,kuryk
1,96.13,4.14,803,Clouds,broken clouds,04d,stations,300.3,1011.85,72,300.3,300.3,,2.14,211.801,81,1569906552,,,0.0077,ID,1569885769,1569929266,25200,1214488,Meulaboh,200,1011.85,1011.41,,,,,,meulaboh
1,69.92,60.06,804,Clouds,overcast clouds,04d,stations,279.5,1016.66,72,279.5,279.5,,5.64,220.905,97,1569906552,,,0.0082,RU,1569893058,1569934555,18000,1506268,Gornopravdinsk,200,1016.66,1011.65,,,,,,gornopravdinsk
1,141.86,39.28,801,Clouds,few clouds,02d,stations,299.15,1020,57,299.15,299.15,10000,1,,20,1569906553,1,8047,0.0069,JP,1569875261,1569917828,32400,2112444,Kamaishi,200,,,,,,,,kamaishi
1,11.04,61.57,804,Clouds,overcast clouds,04n,stations,270.93,996,92,270.93,270.93,,0.45,315,89,1569906553,3,2012176,0.0074,NO,1569907275,1569948594,7200,3149510,Koppang,200,,,,2.68,,,0.625,koppang
1,-147.8,64.86,803,Clouds,broken clouds,04n,stations,278.13,1010,87,276.48,280.15,16093,1.5,80,75,1569906554,1,7684,0.0062,US,1569859055,1569900279,-28800,5859699,College,200,,,,,,,,college
1,-28.7,38.52,804,Clouds,overcast clouds,04n,stations,294.5,1015.06,69,294.5,294.5,,5.7,175.026,100,1569906554,,,0.0104,PT,1569916208,1569958731,0,3372707,Ribeira Grande,200,1015.06,1015.14,,,,,,ribeira grande
1,-59.84,3.36,801,Clouds,few clouds,02n,stations,299,1007.37,74,299,299,,4,63.857,23,1569906554,,,0.0064,GY,1569923186,1569966697,-14400,3379316,Bonfim,200,1007.37,996.73,,,,,,bonfim
1,-65.11,-43.3,800,Clear,clear sky,01n,stations,279.5,1007.94,33,279.5,279.5,,9.02,260.193,0,1569906555,,,0.0078,AR,1569923619,1569968793,-10800,3839307,Rawson,200,1007.94,982.42,,,,,,rawson
1,135.86,-34.72,800,Clear,clear sky,01d,stations,294.4,1016.8,58,294.4,294.4,,7.24,46.68,0,1569906555,,,0.0075,AU,1569875654,1569920315,34200,2063036,Port Lincoln,200,1016.8,1016.66,,,,,,port lincoln
1,111.96,21.85,800,Clear,clear sky,01d,stations,306.48,1005,45,306.48,306.48,,1.62,108.255,0,1569906556,3,2000340,0.0062,CN,1569882188,1569925249,28800,1806408,Yangjiang,200,,,,,,,,yangjiang
1,176.59,-39.94,501,Rain,moderate rain,10d,stations,279.82,1008,90,279.82,279.82,,3.59,199.658,100,1569906556,3,2010964,0.0063,NZ,1569865771,1569910652,46800,2185329,Waipawa,200,,,,,,5.25,,waipawa
1,173.16,-35.17,500,Rain,light rain,10d,stations,285.37,1009,93,285.37,285.37,,11.83,224.075,80,1569906557,3,2016422,0.0071,NZ,1569866701,1569911368,46800,2194098,Ahipara,200,,,,,,0.876,,ahipara
1,120.73,49.28,800,Clear,clear sky,01d,stations,298.3,1004.41,34,298.3,298.3,,5.08,253.915,8,1569906558,,,0.0061,CN,1569880531,1569922699,28800,2033536,Yakeshi,200,1004.41,919.06,,,,,,yakeshi
1,175.85,-37.02,500,Rain,light rain,10d,stations,283.95,1007,65,281.48,286.48,,6.71,283,15,1569906558,3,2008213,0.007,NZ,1569866016,1569910762,46800,2182010,Tairua,200,,,,10.28,,0.25,,tairua
1,64.91,36.41,800,Clear,clear sky,01d,stations,294,1016.82,24,294,294,,4.04,22.596,0,1569906558,,,0.0065,AF,1569893693,1569936324,16200,1142226,Dawlatabad,200,1016.82,946.15,,,,,,dawlatabad
1,72.89,2.67,804,Clouds,overcast clouds,04d,stations,300.8,1012.5,73,300.8,300.8,,3.32,110.366,96,1569906559,,,0.0063,MV,1569891327,1569934860,18000,1337607,Kudahuvadhoo,200,1012.5,1012.45,,,,,,kudahuvadhoo
1,25,54.17,803,Clouds,broken clouds,04d,stations,282.07,998,81,282.04,282.15,10000,7.7,270,75,1569906559,1,1883,0.0077,LT,1569903658,1569945511,10800,599614,Eisiskes,200,,,,,,,,eisiskes
1,125.49,58.84,804,Clouds,overcast clouds,04d,stations,274.7,1012.78,70,274.7,274.7,,5.04,290.109,100,1569906559,,,0.0062,RU,1569879655,1569921290,32400,2019135,Nizhniy Kuranakh,200,1012.78,954.17,,,,,,nizhniy kuranakh
1,4.41,9.9,500,Rain,light rain,10n,stations,295.2,1011.26,93,295.2,295.2,,1.1,190.231,100,1569906560,,,0.0081,NG,1569907851,1569951199,3600,2319078,Wawa,200,1011.26,979.67,,,,1.25,,wawa
1,22.13,-30.97,800,Clear,clear sky,01d,stations,282.4,1023.69,58,282.4,282.4,,5.16,87.068,0,1569906560,,,0.0088,ZA,1569903000,1569947546,7200,1014034,Carnarvon,200,1023.69,875.41,,,,,,carnarvon
1,-9.06,42.77,741,Fog,fog,50n,stations,290.81,1015,100,288.71,292.59,10000,2.1,250,75,1569906499,1,6434,0.0067,ES,1569911571,1569953943,7200,3115824,Muros,200,,,,,,,,muros
1,-42.89,-12.32,804,Clouds,overcast clouds,04n,stations,294.4,1012.17,78,294.4,294.4,,3.9,82.132,88,1569906561,,,0.007,BR,1569918906,1569962842,-10800,3455903,Oliveira dos Brejinhos,200,1012.17,937.53,,,,,,oliveira dos brejinhos
1,147.95,62.72,803,Clouds,broken clouds,04d,stations,265.4,1009.33,72,265.4,265.4,,1.15,226.06,70,1569906561,,,0.0056,RU,1569874406,1569915760,39600,2124611,Kholodnyy,200,1009.33,886.58,,,,,,kholodnyy
1,42.8,9.35,500,Rain,light rain,10d,stations,291.7,1013.38,76,291.7,291.7,,3.98,195.392,89,1569906561,,,0.0064,ET,1569898631,1569941996,10800,333795,Jijiga,200,1013.38,807.99,,,,2.625,,jijiga
1,85.32,27.71,803,Clouds,broken clouds,04d,stations,296.15,1018,73,296.15,296.15,10000,1.5,290,75,1569906435,1,9201,0.0094,NP,1569888662,1569931560,20700,1283240,Kathmandu,200,,,,,,,,kathmandu
1,127.87,26.35,802,Clouds,scattered clouds,03d,stations,304.02,1012,74,303.15,305.15,16093,7.7,140,40,1569906562,1,8138,0.0067,JP,1569878428,1569921375,32400,1863495,Gushikawa,200,,,,11.3,,,,gushikawa
1,15.38,8.67,804,Clouds,overcast clouds,04d,stations,295.1,1012.26,95,295.1,295.1,,1.27,233.616,96,1569906562,,,0.0071,TD,1569905203,1569948583,3600,2435708,Beinamar,200,1012.26,958.68,,,,,,beinamar
1,57.53,22.93,800,Clear,clear sky,01d,stations,302.8,1010.74,38,302.8,302.8,,2.71,233.696,0,1569906562,,,0.007,OM,1569895269,1569938290,14400,286987,Nizwa,200,1010.74,905.13,,,,,,nizwa
1,-4.62,48.38,804,Clouds,overcast clouds,04n,stations,288.84,1003,93,288.15,289.15,10000,8.7,220,90,1569906563,1,6554,0.0078,FR,1569910624,1569952759,7200,2986626,Plouzane,200,,,,,,,,plouzane
1,-0.73,12.29,804,Clouds,overcast clouds,04n,stations,298.3,1010.33,81,298.3,298.3,,4.06,180.791,100,1569906564,,,0.0064,BF,1569909115,1569952402,0,2360627,Bako,200,1010.33,976.26,,,,,,bako
1,37.97,55.61,803,Clouds,broken clouds,04d,stations,286.85,993,87,286.15,287.15,10000,4,180,75,1569906564,1,9020,0.0116,RU,1569900584,1569942361,10800,515873,Oktyabrskiy,200,,,,,,,,oktyabrskiy
1,90.06,22.49,500,Rain,light rain,10d,stations,304.7,1008.53,62,304.7,304.7,,2.99,267.201,16,1569906564,,,0.0068,BD,1569887454,1569930494,21600,1477498,Bhandaria,200,1008.53,1007.54,,,,2.75,,bhandaria
1,-73.48,45.36,501,Rain,moderate rain,10n,stations,282.02,1020,87,280.93,283.15,9656,3.6,40,90,1569906565,1,820,0.0089,CA,1569927097,1569969331,-14400,6138908,Saint-Philippe,200,,,1.52,,,,,saint-philippe
1,7.99,16.97,800,Clear,clear sky,01n,stations,300.15,1011,51,300.15,300.15,10000,1.37,237.516,1,1569906565,1,9727,0.0071,NE,1569907082,1569950250,3600,2448085,Agadez,200,,,,,,,,agadez
1,126.7,62.1,804,Clouds,overcast clouds,04d,stations,273.2,1008.72,85,273.2,273.2,,4.4,281.192,100,1569906565,,,0.0074,RU,1569879489,1569920875,32400,2026861,Berdigestyakh,200,1008.72,977.89,,,,,,berdigestyakh
1,177.51,64.73,520,Rain,light intensity shower rain,09n,stations,281.03,1001,81,280.93,281.15,10000,5,120,75,1569906566,1,8872,0.0073,RU,1569867391,1569908590,43200,2127202,Anadyr,200,,,,7,,,,anadyr
1,102.28,60.35,802,Clouds,scattered clouds,03d,stations,277.2,1021.72,41,277.2,277.2,,3.23,268.118,41,1569906566,,,0.0055,RU,1569885290,1569926794,25200,2013727,Vanavara,200,1021.72,984.15,,,,,,vanavara
1,-3.98,22.68,800,Clear,clear sky,01n,stations,303.8,1011.37,14,303.8,303.8,,5.39,67.267,0,1569906566,,,0.0051,ML,1569910031,1569953045,0,2450173,Taoudenni,200,1011.37,989.96,,,,,,taoudenni
1,80.55,73.51,803,Clouds,broken clouds,04d,stations,272.4,1013.13,80,272.4,272.4,,6.15,120.098,77,1569906567,,,0.0063,RU,1569891381,1569931130,25200,1507390,Dikson,200,1013.13,1012.25,,,,,,dikson
1,60.33,52.43,800,Clear,clear sky,01d,stations,280.5,1026.34,53,280.5,280.5,,2.81,174.2,0,1569906567,,,0.0074,RU,1569895120,1569937095,18000,1508811,Bredy,200,1026.34,980.92,,,,,,bredy
1,13.53,48.64,800,Clear,clear sky,01d,stations,279.78,1013,100,278.71,281.48,10000,1,,0,1569906567,1,6874,0.0083,AT,1569906270,1569948404,7200,3220813,Wanning,200,,,,,,,,wanning
1,,,,,,,,,,,,,,,,,,,,,,,,,,,404,,,,,city not found,,,sentyabrskiy
1,-6.59,62.23,500,Rain,light rain,10n,stations,278.15,1010,80,278.15,278.15,10000,8.2,360,99,1569906568,1,1596,0.0055,FO,1569911543,1569952786,3600,2618795,Klaksvik,200,,,,,,,,klaksvik
1,81.12,6.12,802,Clouds,scattered clouds,03d,stations,303.15,1014,79,303.15,303.15,10000,1,,40,1569906568,1,9124,0.0066,LK,1569889395,1569932843,19800,1244926,Hambantota,200,,,,,,,,hambantota
1,-17.92,28.66,800,Clear,clear sky,01n,stations,297.34,1016,88,294.15,300.37,10000,5.7,350,0,1569906569,1,2377,0.0067,ES,1569913462,1569956304,3600,2514651,Los Llanos de Aridane,200,,,,,,,,los llanos de aridane
1,140.4,-8.49,804,Clouds,overcast clouds,04d,stations,299.3,1009.78,83,299.3,299.3,,11.91,146.096,100,1569906569,,,0.0072,ID,1569874988,1569918802,32400,2082539,Merauke,200,1009.78,1010.17,,,,,,merauke
1,-94.66,31.6,800,Clear,clear sky,01n,stations,298.5,1017,78,296.48,300.15,16093,4.1,170,1,1569906569,1,4601,0.0071,US,1569931931,1569974661,-18000,4713735,Nacogdoches,200,,,,,,,,nacogdoches
1,9.5,48.41,801,Clouds,few clouds,02n,stations,281.43,1012,93,279.26,284.26,10000,1,240,20,1569906570,1,1831,0.008,DE,1569907232,1569949375,7200,2867560,Munsingen,200,,,,,,,,munsingen
1,170.27,69.7,804,Clouds,overcast clouds,04d,stations,273,999.09,77,273,273,,1.75,234.987,97,1569906570,,,0.007,RU,1569869432,1569910024,43200,2122090,Pevek,200,999.09,999.25,,,,,,pevek
1,141.3,-2.67,803,Clouds,broken clouds,04d,stations,300.7,1010.26,77,300.7,300.7,,7.48,76.034,78,1569906570,,,0.007,PG,1569874847,1569918511,36000,2084442,Vanimo,200,1010.26,1009.81,,,,,,vanimo
1,170.5,-45.87,803,Clouds,broken clouds,04d,stations,283.71,1005,44,283.71,283.71,,4.92,271,65,1569906571,3,75281,0.0056,NZ,1569867070,1569912276,46800,2191562,Dunedin,200,,,,6.71,,,,dunedin
1,,,,,,,,,,,,,,,,,,,,,,,,,,,404,,,,,city not found,,,aporawan
1,96.11,52.47,802,Clouds,scattered clouds,03d,stations,277.1,1029.17,37,277.1,277.1,,1.22,328.005,34,1569906572,,,0.0062,RU,1569886524,1569928520,25200,1489401,Toora-Khem,200,1029.17,895.81,,,,,,toora-khem
1,42.91,62.11,804,Clouds,overcast clouds,04d,stations,281.4,993.61,95,281.4,281.4,,2.67,93.78,93,1569906573,,,0.0062,RU,1569899636,1569940939,10800,494884,Shenkursk,200,993.61,985.45,,,,,,shenkursk
1,-68.5,-10.65,804,Clouds,overcast clouds,04n,stations,295.2,1006.93,96,295.2,295.2,,0.89,236.917,100,1569906573,,,0.0063,BR,1569925074,1569968965,-18000,3924674,Xapuri,200,1006.93,977.17,,,,,,xapuri
1,-24.5,14.9,803,Clouds,broken clouds,04n,stations,298.6,1011.89,83,298.6,298.6,,4.47,39.188,65,1569906574,,,0.0059,CV,1569914853,1569958070,-3600,3374210,Sao Filipe,200,1011.89,1011.81,,,,,,sao filipe
1,83.22,20.19,803,Clouds,broken clouds,04d,stations,303.3,1011.01,66,303.3,303.3,,2.92,249.812,79,1569906574,,,0.0071,IN,1569889066,1569932164,19800,1267222,Kesinga,200,1011.01,979.81,,,,,,kesinga
1,22.53,40.76,800,Clear,clear sky,01d,stations,292.31,1011,100,290.37,293.71,,0.45,,0,1569906574,3,2001989,0.0094,GR,1569903945,1569946409,10800,734726,Pella,200,,,,3.13,,,,pella
1,-70.1,41.28,802,Clouds,scattered clouds,03n,stations,285.74,1025,81,284.15,287.04,16093,2.1,70,40,1569906574,1,3218,0.0079,US,1569926202,1569968604,-14400,4944903,Nantucket,200,,,,,,,,nantucket
1,40.14,51.74,804,Clouds,overcast clouds,04d,stations,286.15,1000,93,286.15,286.15,10000,5,170,90,1569906575,1,9034,0.0065,RU,1569899953,1569941951,10800,511437,Pereleshino,200,,,,,,,,pereleshino
1,-68.59,70.47,741,Fog,fog,50n,stations,273.15,1012,92,273.15,273.15,805,1,240,90,1569906575,1,776,0.0065,CA,1569926979,1569967102,-14400,5924351,Clyde River,200,,,,,,,,clyde river
1,78.49,30.69,301,Drizzle,drizzle,09d,stations,297.15,1014,88,297.15,297.15,3000,2.1,80,90,1569906575,1,9162,0.0065,IN,1569890344,1569933156,19800,1253628,Ginda,200,,,,,,,,ginda
1,45.34,2.04,803,Clouds,broken clouds,04d,stations,299.15,1011,74,299.15,299.15,10000,5.7,100,75,1569906576,1,2497,0.0059,SO,1569897930,1569941478,10800,53654,Mogadishu,200,,,,,,,,mogadishu
1,-39.27,-17.73,500,Rain,light rain,10n,stations,295.1,1016.13,85,295.1,295.1,,3.21,137.422,18,1569906576,,,0.009,BR,1569917957,1569962055,-10800,3466980,Caravelas,200,1016.13,1014.74,,,,2.688,,caravelas
1,73.1,6.88,803,Clouds,broken clouds,04d,stations,301.6,1013.34,68,301.6,301.6,,3.26,133.037,75,1569906576,,,0.0065,MV,1569891329,1569934757,18000,1337612,Dhidhdhoo,200,1013.34,1013.29,,,,,,dhidhdhoo
1,,,,,,,,,,,,,,,,,,,,,,,,,,,404,,,,,city not found,,,singkawang
1,67.71,47.8,800,Clear,clear sky,01d,stations,278.15,1025,38,278.15,278.15,10000,7,60,0,1569906577,1,8826,0.0074,KZ,1569893235,1569935438,21600,1516589,Zhezkazgan,200,,,,,,,,zhezkazgan
1,92.75,11.67,500,Rain,light rain,10d,stations,301.2,1011.67,75,301.2,301.2,,1.48,36.746,13,1569906577,,,0.0058,IN,1569886672,1569929984,19800,1259385,Port Blair,200,1011.67,1011.35,,,,0.312,,port blair
1,148.22,-35.3,800,Clear,clear sky,01d,stations,289.3,1025.29,57,289.3,289.3,,2.17,300.249,0,1569906578,,,0.0057,AU,1569872678,1569917359,36000,2145875,Tumut,200,1025.29,949.86,,,,,,tumut
1,116.27,-8.71,801,Clouds,few clouds,02d,stations,304.15,1013,55,304.15,304.15,8000,7.2,110,20,1569906578,1,9337,0.006,ID,1569880774,1569924595,28800,1630662,Praya,200,,,,,,,,praya
1,-113.29,54.72,800,Clear,clear sky,01n,stations,270.3,1021.66,95,270.3,270.3,,2.53,160.017,0,1569906579,,,0.0067,CA,1569850395,1569892378,-21600,5887916,Athabasca,200,1021.66,943.08,,,,,,athabasca
1,35.38,-23.87,802,Clouds,scattered clouds,03d,stations,296.15,1014,100,296.15,296.15,10000,6.3,168.897,40,1569906579,1,2200,0.0071,MZ,1569899953,1569944235,7200,1045114,Inhambane,200,,,,,,,,inhambane
1,-52.9,65.42,802,Clouds,scattered clouds,03n,stations,277.5,1012.55,69,277.5,277.5,,3.14,348.311,33,1569906580,,,0.0061,GL,1569922842,1569963710,-7200,3421982,Maniitsoq,200,1012.55,1003.8,,,,,,maniitsoq
1,115.65,32.17,800,Clear,clear sky,01d,stations,304.8,1010.62,24,304.8,304.8,,4.3,65.618,0,1569906580,,,0.0065,CN,1569881444,1569924224,28800,1809223,Gushi,200,1010.62,1007.08,,,,,,gushi
1,150.67,-10.62,500,Rain,light rain,10d,stations,298.1,1011.79,91,298.1,298.1,,1.91,129.1,100,1569906581,,,0.0065,PG,1569872497,1569916365,36000,2132606,Samarai,200,1011.79,997.09,,,,2.312,,samarai
1,158.65,53.05,803,Clouds,broken clouds,04d,stations,287.15,1013,56,287.15,287.15,10000,5,310,84,1569906581,1,8887,0.008,RU,1569871511,1569913521,43200,2122104,Petropavlovsk-Kamchatskiy,200,,,,,,,,petropavlovsk-kamchatskiy
1,,,,,,,,,,,,,,,,,,,,,,,,,,,404,,,,,city not found,,,stantsiya gorchakovo
1,29.09,70.86,803,Clouds,broken clouds,04d,stations,278.15,1005,75,278.15,278.15,10000,9.8,70,75,1569906582,1,1633,0.0074,NO,1569903504,1569943703,7200,780687,Berlevag,200,,,,,,,,berlevag
1,31.87,13.01,804,Clouds,overcast clouds,04d,stations,297.3,1012.59,79,297.3,297.3,,2.33,110.256,100,1569906582,,,0.0058,SD,1569901300,1569944572,7200,366426,Tandalti,200,1012.59,962.23,,,,,,tandalti
1,-61.97,-33.75,500,Rain,light rain,10n,stations,284.82,995,86,284.82,284.82,,5.81,135,95,1569906582,3,2011346,0.0072,AR,1569923108,1569967797,-10800,3833062,Venado Tuerto,200,,,,7.6,,1.312,,venado tuerto
1,140.44,52.37,802,Clouds,scattered clouds,03d,stations,285.3,1013.51,63,285.3,285.3,,2.94,196.293,46,1569906583,,,0.009,RU,1569875869,1569917901,36000,2126638,Bogorodskoye,200,1013.51,973.72,,,,,,bogorodskoye
1,-105.62,28.39,803,Clouds,broken clouds,04n,stations,293.15,1015,94,293.15,293.15,16093,4.03,163.965,75,1569906583,1,7111,0.0058,MX,1569848083,1569891010,-21600,3996234,Lazaro Cardenas,200,,,,,,,,lazaro cardenas
1,-90.4,20.87,800,Clear,clear sky,01n,stations,300.5,1010.52,80,300.5,300.5,,9.65,82.11,5,1569906583,,,0.0058,MX,1569930751,1569973797,-18000,3531368,Celestun,200,1010.52,1010.39,,,,,,celestun
1,,,,,,,,,,,,,,,,,,,,,,,,,,,404,,,,,city not found,,,maghama
1,127.48,42.18,800,Clear,clear sky,01d,stations,298.1,1017.32,39,298.1,298.1,,2.59,206.031,0,1569906584,,,0.0069,CN,1569878765,1569921225,28800,2034691,Songjianghe,200,1017.32,949.81,,,,,,songjianghe
1,27.57,45.2,800,Clear,clear sky,01d,stations,292.15,1012,48,292.15,292.15,10000,8.2,340,5,1569906584,1,9687,0.0072,RO,1569902821,1569945114,10800,675840,Esna,200,,,,,,,,esna
1,-7.17,62.16,500,Rain,light rain,10n,stations,278.15,1010,80,278.15,278.15,10000,8.2,360,95,1569906585,1,1596,0.0073,FO,1569911679,1569952928,3600,2610343,Vestmanna,200,,,,,,,,vestmanna
1,-72.07,-45.58,800,Clear,clear sky,01n,stations,273.15,1010,99,273.15,273.15,10000,1,,0,1569906585,1,8491,0.0071,CL,1569925217,1569970535,-10800,3894426,Coihaique,200,,,,,,,,coihaique
1,-74.96,10.99,803,Clouds,broken clouds,04n,stations,297.61,1009,100,297.15,298.15,10000,1.5,230,75,1569906585,1,8584,0.0084,CO,1569926913,1569970225,-18000,3671497,Puerto Colombia,200,,,,,,,,puerto colombia
1,152.44,-3.66,500,Rain,light rain,10d,stations,300.8,1009.82,74,300.8,300.8,,2.92,74.81,29,1569906586,,,0.0066,PG,1569872161,1569915851,36000,2090021,Namatanai,200,1009.82,987.03,,,,0.688,,namatanai
1,114.56,29.04,800,Clear,clear sky,01d,stations,306.6,1008.58,29,306.6,306.6,,1.13,319.96,0,1569906586,,,0.0056,CN,1569881660,1569924530,28800,1786538,Yining,200,1008.58,980.29,,,,,,yining
1,178.42,69.38,804,Clouds,overcast clouds,04n,stations,276.8,1000.47,68,276.8,276.8,,2.35,166.082,99,1569906586,,,0.005,RU,1569867447,1569908097,43200,2123814,Leningradskiy,200,1000.47,996.57,,,,,,leningradskiy
1,153.24,-28.95,803,Clouds,broken clouds,04d,stations,293.98,1027,52,293.15,294.26,10000,6.2,130,75,1569906587,1,9537,0.0079,AU,1569871599,1569916029,36000,2160063,Codrington,200,,,,,,,,codrington
1,77.58,34.16,801,Clouds,few clouds,02d,stations,277.8,1016.6,34,277.8,277.8,,3.43,218.127,13,1569906587,,,0.0076,IN,1569890615,1569933322,19800,1264976,Leh,200,1016.6,583.27,,,,,,leh
1,101.77,36.62,800,Clear,clear sky,01d,stations,294.82,774,43,294.82,294.82,,3.56,47.505,0,1569906587,3,2019379,0.0068,CN,1569884845,1569927483,28800,1788852,Xining,200,,,,,,,,xining
1,21.3,29.14,800,Clear,clear sky,01d,stations,294.7,1013.95,73,294.7,294.7,,4.62,325.656,0,1569906588,,,0.0071,LY,1569904052,1569946892,7200,88533,Awjilah,200,1013.95,1002.9,,,,,,awjilah
1,22.47,2.18,804,Clouds,overcast clouds,04d,stations,295.6,1012.97,89,295.6,295.6,,1.26,244.741,100,1569906588,,,0.0069,CD,1569903420,1569946963,3600,217745,Bumba,200,1012.97,965.89,,,,,,bumba
1,-53.46,-33.69,500,Rain,light rain,10n,stations,291.6,1002.01,90,291.6,291.6,,3.51,21.262,78,1569906588,,,0.0073,UY,1569921069,1569965752,-10800,3443061,Chuy,200,1002.01,1000.71,,,,0.562,,chuy
1,-117.13,58.52,802,Clouds,scattered clouds,03n,stations,279.15,1012,52,279.15,279.15,24140,2.6,170,40,1569906589,1,867,0.0067,CA,1569851429,1569893187,-21600,5975004,High Level,200,,,,,,,,high level
1,15.16,-26.65,800,Clear,clear sky,01d,stations,288.15,1015,58,288.15,288.15,,4.1,190,0,1569906589,1,2260,0.0062,NA,1569904753,1569949138,7200,3355672,Luderitz,200,,,,,,,,luderitz
1,-94.35,38.65,800,Clear,clear sky,01n,stations,297.69,1015,73,296.48,299.15,16093,2.6,200,1,1569906318,1,4762,0.0114,US,1569931976,1569974467,-18000,4389658,Harrisonville,200,,,,,,,,harrisonville
1,-9.73,29.7,802,Clouds,scattered clouds,03n,stations,295.9,1015.07,62,295.9,295.9,,0.64,4.868,36,1569906590,,,0.0057,MA,1569911511,1569954325,3600,2527089,Tiznit,200,1015.07,1013.33,,,,,,tiznit
1,,,,,,,,,,,,,,,,,,,,,,,,,,,404,,,,,city not found,,,nagornyy
1,-7.99,31.63,800,Clear,clear sky,01n,stations,296.15,1017,33,296.15,296.15,10000,1.5,100,0,1569906590,1,2409,0.0076,MA,1569911122,1569953878,3600,2542997,Marrakesh,200,,,,,,,,marrakesh
1,,,,,,,,,,,,,,,,,,,,,,,,,,,404,,,,,city not found,,,vaitupu
1,16.69,43.44,803,Clouds,broken clouds,04d,stations,291.67,1014,82,291.15,292.04,10000,1,,75,1569906591,1,6387,0.0064,HR,1569905399,1569947758,7200,3194114,Omis,200,,,,,,,,omis
1,179.32,63.05,500,Rain,light rain,10n,stations,279.1,1001.73,97,279.1,279.1,,2.67,153.896,97,1569906591,,,0.0078,RU,1569866878,1569908235,43200,2126710,Beringovskiy,200,1001.73,985.27,,,,0.312,,beringovskiy
1,124.89,-9.11,800,Clear,clear sky,01d,stations,300.1,1011.54,68,300.1,300.1,,3.26,299.253,0,1569906592,,,0.0055,ID,1569878701,1569922532,28800,1651103,Atambua,200,1011.54,1010.85,,,,,,atambua
1,-1.35,60.4,500,Rain,light rain,10n,stations,280.15,1004,81,280.15,280.15,10000,6.2,330,64,1569906592,1,1447,0.0068,GB,1569910204,1569951610,3600,2654970,Brae,200,,,,,,0.187,,brae
1,-66.86,-29.41,800,Clear,clear sky,01n,stations,287.1,1002.53,38,287.1,287.1,,1.68,160.424,1,1569906592,,,0.0064,AR,1569924370,1569968881,-10800,3848950,La Rioja,200,1002.53,864.12,,,,,,la rioja
1,,,,,,,,,,,,,,,,,,,,,,,,,,,404,,,,,city not found,,,ruatoria
1,38.15,10.16,500,Rain,light rain,10d,stations,291.8,1016.61,91,291.8,291.8,,1.96,188.693,100,1569906593,,,0.0063,ET,1569899757,1569943101,10800,339551,Dejen,200,1016.61,852.85,,,,0.75,,dejen
1,163.07,59.24,804,Clouds,overcast clouds,04d,stations,277.4,1005.05,67,277.4,277.4,,4.34,221.355,85,1569906593,,,0.0071,RU,1569870635,1569912275,43200,2122389,Ossora,200,1005.05,984.74,,,,,,ossora
1,-85.59,42.29,800,Clear,clear sky,01n,stations,295.87,1016,88,293.71,298.15,16093,1.5,230,1,1569906593,1,4328,0.0079,US,1569929942,1569972298,-14400,4997787,Kalamazoo,200,,,,,,,,kalamazoo
1,-38.6,-3.71,802,Clouds,scattered clouds,03n,stations,299.15,1011,74,299.15,299.15,10000,6.7,90,40,1569906594,1,8363,0.0062,BR,1569917996,1569961693,-10800,6320062,Vila Velha,200,,,,,,,,vila velha
1,-159.78,-21.21,803,Clouds,broken clouds,04n,stations,295.15,1019,64,295.15,295.15,10000,4.1,110,79,1569906352,1,7271,0.0077,CK,1569860461,1569904622,-36000,4035715,Avarua,200,,,,,,,,avarua
1,20.96,53.87,803,Clouds,broken clouds,04d,stations,282.8,1003.43,82,282.8,282.8,,6.29,241.535,81,1569906594,,,0.0068,PL,1569904620,1569946488,7200,775890,Biskupiec,200,1003.43,989.25,,,,,,biskupiec
1,85.83,20.88,803,Clouds,broken clouds,04d,stations,303.5,1009.58,69,303.5,303.5,,5.54,288.226,52,1569906595,,,0.0055,IN,1569888448,1569931529,19800,1275818,Bhuban,200,1009.58,996.05,,,,,,bhuban
1,119.33,31.35,701,Mist,mist,50d,stations,298.15,1013,78,298.15,298.15,4000,4,50,90,1569906595,1,9660,0.0069,CN,1569880548,1569923353,28800,6957977,Zhoucheng,200,,,,,,,,zhoucheng
1,15.05,3.52,501,Rain,moderate rain,10d,stations,292.9,1014.21,99,292.9,292.9,,1.02,39.045,100,1569906595,,,0.0086,CM,1569905217,1569948727,3600,2220853,Yokadouma,200,1014.21,947.85,,,,4.812,,yokadouma
1,-17.45,14.69,800,Clear,clear sky,01n,stations,299.15,1010,94,299.15,299.15,9000,3.6,330,0,1569906596,1,2410,0.0075,SN,1569913159,1569956382,0,2253354,Dakar,200,,,,,,,,dakar
1,,,,,,,,,,,,,,,,,,,,,,,,,,,404,,,,,city not found,,,palabuhanratu
1,174.5,-35.62,500,Rain,light rain,10d,stations,283.71,1010,77,283.71,283.71,,3.13,240,51,1569906596,3,2012217,0.0076,NZ,1569866370,1569911055,46800,2186111,Ngunguru,200,,,,6.26,,0.25,,ngunguru
1,34.39,45.71,500,Rain,light rain,10d,stations,292.8,1009.66,61,292.8,292.8,,7.13,304.826,68,1569906597,,,0.0073,UA,1569901194,1569943469,10800,709334,Dzhankoy,200,1009.66,1008.84,,,,1,,dzhankoy
1,-52.55,-17.57,803,Clouds,broken clouds,04n,stations,297.7,1008.62,52,297.7,297.7,,0.68,73.478,63,1569906597,,,0.0062,BR,1569921145,1569965240,-10800,3457147,Mineiros,200,1008.62,924.26,,,,,,mineiros
1,8.4,9.67,804,Clouds,overcast clouds,04n,stations,293.2,1012.83,99,293.2,293.2,,2.18,150.47,89,1569906597,,,0.0069,NG,1569906891,1569950245,3600,2335713,Matagami,200,1012.83,933.53,,,,,,matagami
1,,,,,,,,,,,,,,,,,,,,,,,,,,,404,,,,,city not found,,,tapaua
1,56.25,58.02,803,Clouds,broken clouds,04d,stations,281.15,1012,87,281.15,281.15,10000,9,220,75,1569906598,1,8984,0.0065,RU,1569896269,1569937903,18000,511196,Perm,200,,,,,,,,perm
1,,,,,,,,,,,,,,,,,,,,,,,,,,,404,,,,,city not found,,,krasnoselkup
1,-173.98,-18.65,802,Clouds,scattered clouds,03n,stations,299.15,1015,88,299.15,299.15,10000,4.1,100,40,1569906598,1,7292,0.0064,TO,1569950253,1569994404,46800,4032420,Neiafu,200,,,,,,,,neiafu
1,118.07,24.46,801,Clouds,few clouds,02d,stations,308.15,1007,36,308.15,308.15,10000,5,250,20,1569906378,1,9649,0.0072,CN,1569880756,1569923750,28800,1790645,Xiamen,200,,,,,,,,xiamen
1,-73.66,9.56,804,Clouds,overcast clouds,04n,stations,296.5,1009.06,93,296.5,296.5,,1.36,328.182,90,1569906599,,,0.0061,CO,1569926583,1569969932,-18000,3683538,Concepcion,200,1009.06,999.96,,,,,,concepcion
1,75.77,33.31,500,Rain,light rain,10d,stations,282.6,1015.51,75,282.6,282.6,,1.25,83.852,83,1569906599,,,0.0051,IN,1569891036,1569933769,19800,1266475,Kishtwar,200,1015.51,715.19,,,,1.5,,kishtwar
1,46.8,-19.16,800,Clear,clear sky,01d,stations,299.9,1016.65,47,299.9,299.9,,2.39,50.95,0,1569906600,,,0.0083,MG,1569897290,1569941417,10800,1056151,Mananjary,200,1016.65,906.9,,,,,,mananjary
1,-68.52,63.75,804,Clouds,overcast clouds,04n,stations,274.99,1013,93,274.82,275.15,24140,1.5,150,90,1569906600,1,797,0.0088,CA,1569926508,1569967541,-14400,5983720,Iqaluit,200,,,,,,,,iqaluit
1,78.62,30.78,500,Rain,light rain,10d,stations,278.8,1015.14,89,278.8,278.8,,3.22,233.962,75,1569906600,,,0.0057,IN,1569890314,1569933123,19800,1253628,Lata,200,1015.14,634.28,,,,0.875,,lata
1,,,,,,,,,,,,,,,,,,,,,,,,,,,404,,,,,city not found,,,ambodifototra
1,27.85,71.03,500,Rain,light rain,10d,stations,278.78,1005,75,278.15,279.15,10000,9.8,70,75,1569906601,1,1633,0.0082,NO,1569903817,1569943984,7200,778707,Mehamn,200,,,,,,,,mehamn
1,-58.99,-27.45,711,Smoke,smoke,50n,stations,300.67,999,54,300.15,301.15,10000,3.1,50,0,1569906601,1,8257,0.0064,AR,1569922521,1569966954,-10800,3429577,Resistencia,200,,,,,,,,resistencia
1,152.27,-4.34,501,Rain,moderate rain,10d,stations,298,1010.19,91,298,298,,0.56,20.316,79,1569906602,,,0.0091,PG,1569872194,1569915900,36000,2093685,Kokopo,200,1010.19,962.5,,,,4.75,,kokopo
1,24.73,-34,801,Clouds,few clouds,02d,stations,287.2,1024.6,67,287.2,287.2,,4.75,271.497,11,1569906602,,,0.0062,ZA,1569902314,1569946984,7200,986717,Kruisfontein,200,1024.6,992.76,,,,,,kruisfontein
1,,,,,,,,,,,,,,,,,,,,,,,,,,,404,,,,,city not found,,,zolotinka
1,17.68,-14.66,804,Clouds,overcast clouds,04d,stations,291.5,1015.61,22,291.5,291.5,,1.14,239.019,100,1569906603,,,0.0078,AO,1569904343,1569948339,3600,3347353,Menongue,200,1015.61,854.82,,,,,,menongue
1,,,,,,,,,,,,,,,,,,,,,,,,,,,404,,,,,city not found,,,coyuca
1,-11.83,7.62,802,Clouds,scattered clouds,03n,stations,295.8,1011.58,99,295.8,295.8,,1.24,23.962,28,1569906603,,,0.0082,SL,1569911720,1569955124,0,2409215,Mattru,200,1011.58,1009.05,,,,,,mattru
1,43.35,45.01,800,Clear,clear sky,01d,stations,289.9,1012.55,67,289.9,289.9,,4.37,173.906,0,1569906603,,,0.0052,RU,1569899027,1569941336,10800,467850,Yelizavetinskoye,200,1012.55,969.86,,,,,,yelizavetinskoye
1,-170.99,65.58,803,Clouds,broken clouds,04n,stations,274.4,1010.33,92,274.4,274.4,,2.41,196.795,82,1569906604,,,0.0076,RU,1569951254,1569991968,43200,4031637,Lavrentiya,200,1010.33,970.61,,,,,,lavrentiya
1,,,,,,,,,,,,,,,,,,,,,,,,,,,404,,,,,city not found,,,formoso do araguaia
1,-76.2,-13.71,804,Clouds,overcast clouds,04n,stations,289.99,1015,88,289.82,290.15,10000,5.7,220,90,1569906604,1,8691,0.0078,PE,1569926876,1569970857,-18000,3932145,Pisco,200,,,,,,,,pisco
1,108.21,-7.38,803,Clouds,broken clouds,04d,stations,303.8,1010.95,31,303.8,303.8,,4.16,121.054,75,1569906605,,,0.007,ID,1569882726,1569926512,25200,1640902,Kawalu,200,1010.95,943.65,,,,,,kawalu
1,55.99,30.4,800,Clear,clear sky,01d,stations,298.6,1013.75,13,298.6,298.6,,1.99,36.604,0,1569906605,,,0.0067,IR,1569895742,1569938555,12600,118994,Rafsanjan,200,1013.75,806.85,,,,,,rafsanjan
1,-107.33,39.55,800,Clear,clear sky,01n,stations,282.33,1021,41,277.15,286.48,16093,5.7,210,1,1569906605,1,3027,0.0068,US,1569848654,1569891260,-21600,5423092,Glenwood Springs,200,,,,9.8,,,,glenwood springs
1,30.34,66.96,804,Clouds,overcast clouds,04d,stations,278.15,993,90,278.15,278.15,,2.68,54,99,1569906606,3,2004408,0.0071,RU,1569902913,1569943694,10800,583472,Alakurtti,200,,,,4.92,,,,alakurtti
1,,,,,,,,,,,,,,,,,,,,,,,,,,,404,,,,,city not found,,,wa
1,36.99,-16.84,801,Clouds,few clouds,02d,stations,305.5,1009.54,36,305.5,305.5,,2.67,2.236,18,1569906606,,,0.0077,MZ,1569899678,1569943737,7200,1024312,Mocuba,200,1009.54,983.81,,,,,,mocuba
1,-127.42,50.7,801,Clouds,few clouds,02n,stations,277.15,1020,93,277.15,277.15,24140,1.5,220,20,1569906607,1,1011,0.0081,CA,1569853691,1569895863,-25200,6111862,Port Hardy,200,,,,,,,,port hardy
1,-97.07,15.86,801,Clouds,few clouds,02n,stations,296.6,1010.97,82,296.6,296.6,,3.15,316.519,13,1569906607,,,0.0067,MX,1569932284,1569975465,-18000,3520994,Puerto Escondido,200,1010.97,995.57,,,,,,puerto escondido
1,119.78,16.13,500,Rain,light rain,10d,stations,302,1010.66,70,302,302,,1.83,268.871,81,1569906607,,,0.008,PH,1569880240,1569923446,28800,1731298,Aloleng,200,1010.66,1010.47,,,,0.188,,aloleng
1,59.39,42.05,800,Clear,clear sky,01d,stations,284.72,1023,27,284.15,285.15,10000,2.1,40,0,1569906608,1,9010,0.0088,TM,1569895116,1569937549,18000,601551,Akdepe,200,,,,,,,,akdepe
1,-78.7,26.54,800,Clear,clear sky,01n,stations,299.4,1012.91,80,299.4,299.4,,9.82,57.727,10,1569906608,,,0.0093,BS,1569928023,1569970911,-14400,3572375,Freeport,200,1012.91,1012.84,,,,,,freeport
1,73,5.67,501,Rain,moderate rain,10d,stations,300.3,1013.2,80,300.3,300.3,,5.83,233.786,91,1569906608,,,0.0069,MV,1569891338,1569934796,18000,1337619,Ugoofaaru,200,1013.2,1013.46,,,,4.312,,ugoofaaru
1,-46.97,-1.82,803,Clouds,broken clouds,04n,stations,294.5,1008.52,98,294.5,294.5,,1.54,66.528,70,1569906609,,,0.0056,BR,1569920030,1569963677,-10800,3403127,Pyra,200,1008.52,1000.61,,,,,,pyra
1,62.94,56.26,804,Clouds,overcast clouds,04d,stations,279.7,1021.55,67,279.7,279.7,,4.74,207.192,85,1569906609,,,0.0086,RU,1569894603,1569936359,18000,1507565,Dalmatovo,200,1021.55,1002.9,,,,,,dalmatovo
1,-78.12,-2.3,500,Rain,light rain,10n,stations,281.4,1012.36,95,281.4,281.4,,1.29,329.891,93,1569906609,,,0.0082,EC,1569927497,1569971158,-18000,3654541,Macas,200,1012.36,719.37,,,,0.875,,macas
1,44.7,38.23,800,Clear,clear sky,01d,stations,287.4,1014.13,22,287.4,287.4,,2.44,265.4,0,1569906610,,,0.0064,IR,1569898576,1569941139,12600,117656,Ayan,200,1014.13,761.21,,,,,,ayan
1,111.32,30.77,801,Clouds,few clouds,02d,stations,301.4,1009.91,29,301.4,301.4,,2.34,156.48,23,1569906610,,,0.0057,CN,1569882463,1569925282,28800,1786764,Yichang,200,1009.91,920.33,,,,,,yichang
1,-73.36,41.14,500,Rain,light rain,10n,stations,289.4,1023,72,287.04,291.48,16093,3.1,170,90,1569906610,1,3409,0.0152,US,1569926982,1569969389,-14400,4845585,Westport,200,,,,,,,,westport
1,135.99,33.72,803,Clouds,broken clouds,04d,stations,301.15,1019,78,301.15,301.15,10000,4.1,190,75,1569906611,1,7959,0.006,JP,1569876583,1569919324,32400,1847947,Shingu,200,,,,,,,,shingu
1,70.83,66.83,804,Clouds,overcast clouds,04d,stations,276.6,1003.67,82,276.6,276.6,,4.8,229.818,100,1569906611,,,0.0055,RU,1569893165,1569934011,18000,1486321,Yar-Sale,200,1003.67,1000.29,,,,,,yar-sale
1,122.22,-8.63,800,Clear,clear sky,01d,stations,301,1011.29,60,301,301,,3.03,17.347,0,1569906611,,,0.007,ID,1569879348,1569923166,28800,1635815,Maumere,200,1011.29,986.84,,,,,,maumere
1,61.16,36.54,800,Clear,clear sky,01d,stations,292.15,1019,45,292.15,292.15,10000,1.72,63.226,0,1569906612,1,7484,0.0088,TM,1569894595,1569937221,12600,1159716,Sarakhs,200,,,,,,,,sarakhs
1,100.22,64.27,803,Clouds,broken clouds,04d,stations,274.1,1017.81,62,274.1,274.1,,4.41,267.842,56,1569906612,,,0.0074,RU,1569885956,1569927116,25200,2014833,Tura,200,1017.81,970.42,,,,,,tura
1,-6.55,41.42,802,Clouds,scattered clouds,03n,stations,287.2,1015.84,96,287.2,287.2,,1.71,281.27,45,1569906612,,,0.0065,PT,1569910942,1569953368,3600,2737599,Saldanha,200,1015.84,953.67,,,,,,saldanha
1,5.65,58.61,802,Clouds,scattered clouds,03n,stations,279.68,999,87,278.15,280.93,10000,4.1,360,40,1569906613,1,1680,0.0081,NO,1569908453,1569950002,7200,3132644,Varhaug,200,,,,,,,,varhaug
1,-0.76,5.26,804,Clouds,overcast clouds,04n,stations,295.8,1011.27,96,295.8,295.8,,1.21,270.665,100,1569906613,,,0.0059,GH,1569909033,1569952498,0,2297810,Mumford,200,1011.27,1001.05,,,,,,mumford
1,140.78,-37.83,800,Clear,clear sky,01d,stations,293.15,1025,42,293.15,293.15,10000,4.1,30,0,1569906612,1,9560,0.0065,AU,1569874406,1569919202,34200,2156643,Mount Gambier,200,,,,,,,,mount gambier
1,,,,,,,,,,,,,,,,,,,,,,,,,,,404,,,,,city not found,,,jiddah
1,,,,,,,,,,,,,,,,,,,,,,,,,,,404,,,,,city not found,,,inderborskiy
1,64.48,61.68,500,Rain,light rain,10d,stations,275.8,1009.42,88,275.8,275.8,,5,198.261,100,1569906614,,,0.0064,RU,1569894431,1569935792,18000,1502750,Kommunisticheskiy,200,1009.42,995.89,,,,0.312,,kommunisticheskiy
1,,,,,,,,,,,,,,,,,,,,,,,,,,,404,,,,,city not found,,,geresk
1,-158.09,21.35,521,Rain,shower rain,09n,stations,299.6,1014,88,297.15,301.15,16093,2.1,110,75,1569906614,1,7866,0.0077,US,1569860590,1569903682,-36000,5850554,Makakilo City,200,,,,,,,,makakilo city
1,43.46,56.24,520,Rain,light intensity shower rain,09d,stations,285.81,999,87,285.37,286.15,10000,6,180,90,1569906615,1,9037,0.006,RU,1569899284,1569941026,10800,563708,Dzerzhinsk,200,,,,,,,,dzerzhinsk
1,-52.1,-32.03,800,Clear,clear sky,01n,stations,292.59,1002,92,292.59,292.59,,1.34,71,0,1569906615,3,2020865,0.006,BR,1569920778,1569965390,-10800,3451138,Rio Grande,200,,,,2.68,,,,rio grande
1,73.17,61.17,802,Clouds,scattered clouds,03d,stations,279.15,1014,87,279.15,279.15,10000,6,220,40,1569906615,1,8987,0.0055,RU,1569892320,1569933732,18000,1510842,Barsovo,200,,,,,,,,barsovo
1,57.76,-20.21,521,Rain,shower rain,09d,stations,296.55,1020,83,296.15,297.04,10000,6.2,70,75,1569906616,1,2061,0.0065,MU,1569894645,1569938803,14400,1106643,Quatre Cocos,200,,,,,,,,quatre cocos
1,-116.56,43.57,500,Rain,light rain,10n,stations,281.63,1016,61,279.26,284.15,14484,3.1,330,90,1569906616,1,4829,0.0095,US,1569850938,1569893404,-21600,5601933,Nampa,200,,,,6.2,,,,nampa
1,-35.21,-5.81,802,Clouds,scattered clouds,03n,stations,297.13,1013,83,296.15,298.15,10000,3.6,130,40,1569906616,1,8417,0.0086,BR,1569917155,1569960908,-10800,3394023,Natal,200,,,,,,,,natal
1,36.69,50.71,701,Mist,mist,50d,stations,287.15,999,100,287.15,287.15,5000,4,220,75,1569906617,1,9030,0.0062,RU,1569900756,1569942804,10800,824987,Khokhlovo,200,,,,,,,,khokhlovo
1,91.82,56.17,802,Clouds,scattered clouds,03d,stations,277.15,1026,80,277.15,277.15,10000,4,250,40,1569906617,1,8957,0.0052,RU,1569887660,1569929443,25200,1538641,Kedrovyy,200,,,,,,,,kedrovyy
1,18.16,47.99,800,Clear,clear sky,01d,stations,281.63,1015,87,280.15,284.26,10000,1.5,100,0,1569906618,1,6670,0.0066,SK,1569905142,1569947309,7200,3058472,Nove Zamky,200,,,,,,,,nove zamky
1,148.01,-33.38,800,Clear,clear sky,01d,stations,299.82,1025,13,299.82,299.82,,2.24,189,0,1569906618,3,20556,0.0085,AU,1569872769,1569917370,36000,2166368,Forbes,200,,,,3.58,,,,forbes
1,-16.75,13.38,800,Clear,clear sky,01n,stations,299.15,1010,94,299.15,299.15,10000,4.38,326.346,0,1569906618,1,2367,0.0085,GM,1569912974,1569956231,0,2413753,Brufut,200,,,,,,,,brufut
1,122.67,11,501,Rain,moderate rain,10d,stations,302.9,1010.13,71,302.9,302.9,,2.32,183.114,67,1569906619,,,0.0056,PH,1569879483,1569922815,28800,1714733,Dingle,200,1010.13,993.94,,,,5.188,,dingle
1,45.06,-25.17,800,Clear,clear sky,01d,stations,299.9,1015.05,35,299.9,299.9,,2.57,345.694,0,1569906619,,,0.0061,MG,1569897609,1569941933,10800,1067565,Beloha,200,1015.05,993.37,,,,,,beloha
1,46.46,57.37,500,Rain,light rain,10d,stations,284.1,1000.26,89,284.1,284.1,,6.96,182.519,100,1569906619,,,0.0061,RU,1569898600,1569940270,10800,482230,Tonkino,200,1000.26,985.4,,,,0.188,,tonkino
1,-97.86,55.74,804,Clouds,overcast clouds,04n,stations,275.15,1023,59,275.15,275.15,24140,1,60,90,1569906620,1,935,0.0062,CA,1569933231,1569974897,-18000,6165406,Thompson,200,,,,,,,,thompson
1,33.64,-25.04,500,Rain,light rain,10d,stations,291,1020.46,83,291,291,,7.05,172.466,100,1569906598,,,0.0059,MZ,1569900350,1569944673,7200,1024552,Xai-Xai,200,1020.46,1017.54,,,,1.624,,xai-xai
1,145.57,43.32,802,Clouds,scattered clouds,03d,stations,295.15,1017,68,295.15,295.15,10000,3.1,80,40,1569906620,1,7976,0.0072,JP,1569874441,1569916868,32400,2128975,Nemuro,200,,,,,,,,nemuro
1,97.04,40.29,803,Clouds,broken clouds,04d,stations,294.6,1009.23,25,294.6,294.6,,5.45,89.328,76,1569906620,,,0.0056,CN,1569886042,1569928556,28800,1528998,Yumen,200,1009.23,853.14,,,,,,yumen
1,4.24,48.95,804,Clouds,overcast clouds,04n,stations,288.52,1007,93,288.15,289.15,10000,6.7,210,90,1569906621,1,6535,0.0092,FR,1569908509,1569950623,7200,2995603,Saint-Pierre,200,,,,,,,,saint-pierre
1,25.21,0.52,804,Clouds,overcast clouds,04d,stations,296.2,1013.02,79,296.2,296.2,,1.04,299.087,100,1569906621,,,0.0063,CD,1569902741,1569946327,7200,212730,Kisangani,200,1013.02,962.09,,,,,,kisangani
1,,,,,,,,,,,,,,,,,,,,,,,,,,,404,,,,,city not found,,,umzimvubu
1,-59.66,-33.68,501,Rain,moderate rain,10n,stations,287.59,1002,65,287.59,287.59,,4.92,225,100,1569906622,3,2019320,0.0063,AR,1569922556,1569967241,-10800,3428576,San Pedro,200,,,,,,5.312,,san pedro
1,13.31,48.4,800,Clear,clear sky,01d,stations,280.39,1013,100,278.71,283.15,10000,1,,0,1569906622,1,6874,0.0091,AT,1569906317,1569948462,7200,2853065,Pocking,200,,,,,,,,pocking
1,-79,-5.15,500,Rain,light rain,10n,stations,289.9,1012.7,97,289.9,289.9,,0.67,15.945,100,1569906622,,,0.0078,PE,1569927670,1569971407,-18000,3692529,San Ignacio,200,1012.7,860.6,,,,2.938,,san ignacio
1,-38.66,-3.73,802,Clouds,scattered clouds,03n,stations,299.15,1011,74,299.15,299.15,10000,6.7,90,40,1569906623,1,8363,0.0061,BR,1569918011,1569961708,-10800,3402429,Caucaia,200,,,,,,,,caucaia
1,124.29,8,501,Rain,moderate rain,10d,stations,303.15,1010,77,303.15,303.15,,2.68,344,65,1569906623,3,2007154,0.0063,PH,1569879058,1569922463,28800,1701054,Marawi,200,,,,5.36,,6.062,,marawi
1,-75.98,36.85,803,Clouds,broken clouds,04n,stations,293.7,1021,78,291.15,295.37,16093,1.5,70,75,1569906385,1,5216,0.0086,US,1569927533,1569970095,-14400,4791259,Virginia Beach,200,,,,,,,,virginia beach
1,44.06,9.56,501,Rain,moderate rain,10d,stations,295.3,1013.62,69,295.3,295.3,,6.36,164.171,100,1569906624,,,0.006,SO,1569898331,1569941691,10800,57289,Hargeysa,200,1013.62,866.95,,,,3.437,,hargeysa
1,29.85,46.85,801,Clouds,few clouds,02d,stations,289.4,1012.18,52,289.4,289.4,,8.95,309.506,23,1569906624,,,0.0054,UA,1569902309,1569944533,10800,617239,Konstantinovka,200,1012.18,1002.49,,,,,,konstantinovka
1,31.81,31.42,801,Clouds,few clouds,02d,stations,298.15,1011,69,298.15,298.15,10000,1.5,270,20,1569906624,1,2522,0.0066,EG,1569901563,1569944338,7200,358048,Damietta,200,,,,,,,,damietta
1,20.79,-6.42,804,Clouds,overcast clouds,04d,stations,295.2,1012.21,89,295.2,295.2,,1.25,328.344,100,1569906625,,,0.0067,CD,1569903711,1569947478,7200,204953,Tshikapa,200,1012.21,941.85,,,,,,tshikapa
1,-149.33,-17.53,802,Clouds,scattered clouds,03n,stations,298.91,1015,69,298.71,299.15,10000,2.6,360,40,1569906625,1,7318,0.0055,PF,1569858009,1569902059,-36000,4033356,Tiarei,200,,,,,,,,tiarei
1,111.62,-2.68,804,Clouds,overcast clouds,04d,stations,308,1009.29,34,308,308,,2.27,137.889,98,1569906625,,,0.0066,ID,1569881968,1569925634,25200,1632694,Pangkalanbuun,200,1009.29,1006.07,,,,,,pangkalanbuun
1,-8.69,43.21,741,Fog,fog,50n,stations,290.58,1014,82,288.15,292.59,10000,2.6,260,20,1569906626,1,6403,0.0063,ES,1569911490,1569953846,7200,3126369,Carballo,200,,,,,,,,carballo
1,-51.32,-24,800,Clear,clear sky,01n,stations,289.5,1011.97,64,289.5,289.5,,1.74,103.876,0,1569906626,,,0.0066,BR,1569920744,1569965050,-10800,3463573,Faxinal,200,1011.97,948.17,,,,,,faxinal
1,52.16,44.14,802,Clouds,scattered clouds,03d,stations,291.2,1018.66,33,291.2,291.2,,6.84,129.909,33,1569906626,,,0.0066,KZ,1569896893,1569939242,18000,608324,Shetpe,200,1018.66,1015.64,,,,,,shetpe
1,-101.48,25.38,800,Clear,clear sky,01n,stations,292.56,1019,56,291.48,293.15,16093,4.73,36.492,5,1569906627,1,7118,0.0065,MX,1569933475,1569976391,-18000,4005870,General Cepeda,200,,,,,,,,general cepeda
1,40.09,60.8,804,Clouds,overcast clouds,04d,stations,282.7,990.54,97,282.7,282.7,,2.64,123.449,100,1569906627,,,0.0058,RU,1569900258,1569941669,10800,467084,Yertsevo,200,990.54,970.31,,,,,,yertsevo
1,-51.19,68.82,802,Clouds,scattered clouds,03n,stations,275.15,1015,64,275.15,275.15,,2.6,,47,1569906627,1,165,0.0059,GL,1569922656,1569963076,-7200,3420768,Qasigiannguit,200,,,,,,,,qasigiannguit
1,-8.36,43.2,741,Fog,fog,50n,stations,290.42,1014,82,288.15,292.59,10000,2.6,260,20,1569906628,1,6403,0.0086,ES,1569911411,1569953767,7200,3119841,Beira,200,,,,,,,,beira
1,8.83,63.73,802,Clouds,scattered clouds,03n,stations,276.01,988,93,275.37,276.48,10000,5.1,110,40,1569906628,1,1647,0.006,NO,1569907906,1569949023,7200,3139597,Sistranda,200,,,,,,,,sistranda
1,-123.09,55.34,803,Clouds,broken clouds,04n,stations,279.15,1015,48,279.15,279.15,14484,2.6,140,75,1569906628,1,1016,0.0064,CA,1569852767,1569894709,-25200,6063191,Mackenzie,200,,,,,,,,mackenzie
1,28.59,-20.16,800,Clear,clear sky,01d,stations,289.6,1015.58,68,289.6,289.6,,6.12,120.495,10,1569906629,,,0.0068,ZW,1569901642,1569945804,7200,894701,Bulawayo,200,1015.58,875.17,,,,,,bulawayo
1,-76.24,-9.93,500,Rain,light rain,10n,stations,279.3,1015.43,87,279.3,279.3,,0.63,43.71,97,1569906629,,,0.0058,PE,1569926941,1569970812,-18000,3696417,Huanuco,200,1015.43,649.29,,,,0.374,,huanuco
1,-76.41,17.88,211,Thunderstorm,thunderstorm,11n,stations,300.15,1009,83,300.15,300.15,10000,2.1,90,75,1569906629,1,7105,0.0078,JM,1569927352,1569970482,-18000,3489440,Morant Bay,200,,,,,,,,morant bay
1,-45.24,60.14,804,Clouds,overcast clouds,04n,stations,278.2,1010.11,60,278.2,278.2,,3.33,45.73,91,1569906630,,,0.006,GL,1569920745,1569962131,-7200,3421765,Nanortalik,200,1010.11,999.94,,,,,,nanortalik
1,5.26,14.89,801,Clouds,few clouds,02n,stations,301.15,1010,61,301.15,301.15,8000,5.1,180,20,1569906630,1,1189,0.0085,NE,1569907711,1569950931,3600,2439376,Tahoua,200,,,,,,,,tahoua
1,79.84,11.24,802,Clouds,scattered clouds,03d,stations,304.5,1012.54,58,304.5,304.5,,2.47,231.754,44,1569906630,,,0.0071,IN,1569889765,1569933087,19800,1254367,Tirumullaivasal,200,1012.54,1008.1,,,,,,tirumullaivasal
1,69.95,28.69,800,Clear,clear sky,01d,stations,306.8,1007.08,33,306.8,306.8,,5.35,229.775,0,1569906631,,,0.0052,PK,1569892366,1569935232,18000,1166819,Rojhan,200,1007.08,952.01,,,,,,rojhan
1,29.72,70.63,803,Clouds,broken clouds,04d,stations,278.15,1002,80,278.15,278.15,10000,12.9,60,75,1569906631,1,1682,0.0069,NO,1569903332,1569943572,7200,780717,Batsfjord,200,,,,,,,,batsfjord
1,-51.74,64.17,803,Clouds,broken clouds,04n,stations,276.03,1011,58,275.93,276.15,,5.1,50,57,1569906631,1,86,0.0089,GL,1569922494,1569963501,-7200,3421319,Nuuk,200,,,,,,,,nuuk
1,124.81,43.5,800,Clear,clear sky,01d,stations,300.37,987,45,300.37,300.37,,8.06,209.637,0,1569906632,3,2000253,0.0064,CN,1569879431,1569921841,28800,2037222,Gongzhuling,200,,,,,,,,gongzhuling
1,,,,,,,,,,,,,,,,,,,,,,,,,,,404,,,,,city not found,,,kapoeta
1,14,31.76,800,Clear,clear sky,01d,stations,294,1015.32,57,294,294,,2.21,282.399,0,1569906632,,,0.0058,LY,1569905844,1569948604,7200,2218840,Bani Walid,200,1015.32,947.32,,,,,,bani walid
1,135.58,62.65,804,Clouds,overcast clouds,04d,stations,274.3,1007.53,95,274.3,274.3,,1.74,199.707,100,1569906632,,,0.0084,RU,1569877378,1569918725,32400,2022773,Khandyga,200,1007.53,985.37,,,,,,khandyga
1,136.78,-12.18,802,Clouds,scattered clouds,03d,stations,304.15,1014,52,304.15,304.15,10000,7.7,130,40,1569906633,1,9576,0.0068,AU,1569875808,1569919719,34200,2064735,Nhulunbuy,200,,,,,,,,nhulunbuy
1,43.89,47.12,804,Clouds,overcast clouds,04d,stations,289.3,1011.81,68,289.3,289.3,,6.75,178.438,100,1569906633,,,0.0079,RU,1569898942,1569941162,10800,464179,Zavetnoye,200,1011.81,998.5,,,,,,zavetnoye
1,167.72,-45.41,803,Clouds,broken clouds,04d,stations,278,1008.8,71,278,278,,5.27,310.132,83,1569906633,,,0.0051,NZ,1569867750,1569912930,46800,2181625,Te Anau,200,1008.8,954.52,,,,,,te anau
1,-82.55,22.98,802,Clouds,scattered clouds,03n,stations,298.15,1012,83,298.15,298.15,9000,3.6,50,40,1569906634,1,7236,0.0079,CU,1569928896,1569971885,-14400,3567612,Bauta,200,,,,,,,,bauta
1,64.42,63.19,500,Rain,light rain,10d,stations,276.6,1006.2,91,276.6,276.6,,4.4,193.493,100,1569906634,,,0.0056,RU,1569894513,1569935739,18000,1505965,Igrim,200,1006.2,995.57,,,,1.063,,igrim
1,146.16,-18.65,800,Clear,clear sky,01d,stations,301.7,1016.37,42,301.7,301.7,,3.14,104.478,1,1569906634,,,0.006,AU,1569873466,1569917560,36000,2162737,Ingham,200,1016.37,995.73,,,,,,ingham
1,,,,,,,,,,,,,,,,,,,,,,,,,,,404,,,,,city not found,,,sorvag
1,45.03,12.79,500,Rain,light rain,10d,stations,305.3,1011.43,55,305.3,305.3,,6.85,94.235,89,1569906635,,,0.0068,YE,1569898139,1569941418,10800,415189,Aden,200,1011.43,1003.78,,,,0.562,,aden
1,,,,,,,,,,,,,,,,,,,,,,,,,,,404,,,,,city not found,,,ascension
1,-94.76,39.95,800,Clear,clear sky,01n,stations,297.73,1014,83,296.15,299.15,16093,3.1,180,1,1569906635,1,4042,0.0066,US,1569932099,1569974541,-18000,4407665,Kodiak,200,,,,,,,,kodiak
1,17.79,51.9,801,Clouds,few clouds,02d,stations,283.71,1010,96,283.71,283.71,,0.45,201,18,1569906636,3,2000041,0.0088,PL,1569905327,1569947302,7200,3088848,Pleszew,200,,,,1.34,,,,pleszew
1,25.44,-33.4,800,Clear,clear sky,01d,stations,287.15,1023,82,287.15,287.15,10000,5.7,260,0,1569906636,1,1973,0.0054,ZA,1569902157,1569946801,7200,990802,Kirkwood,200,,,,,,,,kirkwood
1,-47.36,-0.61,802,Clouds,scattered clouds,03n,stations,300.1,1008.19,79,300.1,300.1,,6.38,74.326,42,1569906636,,,0.0061,BR,1569920139,1569963754,-10800,3389822,Salinopolis,200,1008.19,1008.2,,,,,,salinopolis
1,13.84,-18.06,800,Clear,clear sky,01d,stations,291.5,1013.96,26,291.5,291.5,,3.27,65.521,0,1569906637,,,0.0067,NA,1569905213,1569949312,7200,3354077,Opuwo,200,1013.96,898.53,,,,,,opuwo
1,-86.92,14.68,500,Rain,light rain,10n,stations,292.2,1010.89,91,292.2,292.2,,0.54,78.979,99,1569906637,,,0.0069,HN,1569843428,1569886691,-21600,3609418,San Cristobal,200,1010.89,907.93,,,,2.875,,san cristobal
1,-72.22,48.51,500,Rain,light rain,10n,stations,279.13,1022,86,278.15,279.82,40233,1.5,270,90,1569906505,1,901,0.0062,CA,1569926867,1569968957,-14400,6125653,Roberval,200,,,,,,,,roberval
1,91.87,27.59,500,Rain,light rain,10d,stations,289.6,1012.44,88,289.6,289.6,,2.02,192.782,57,1569906637,,,0.006,BT,1569887088,1569929991,19800,1254832,Tawang,200,1012.44,768.9,,,,2.438,,tawang
1,22.18,46.45,800,Clear,clear sky,01d,stations,281.03,1015,93,280.93,281.15,10000,3.1,100,0,1569906638,1,6917,0.0054,RO,1569904142,1569946380,10800,667515,Susani,200,,,,,,,,susani
1,32.75,53.67,500,Rain,light rain,10d,stations,285.3,994.61,93,285.3,285.3,,5.58,255.819,89,1569906638,,,0.0072,RU,1569901781,1569943669,10800,467134,Yershichi,200,994.61,971.08,,,,0.375,,yershichi
1,50.01,36.28,800,Clear,clear sky,01d,stations,289.15,1017,72,289.15,289.15,10000,2.19,170.159,0,1569906638,1,7465,0.0078,IR,1569897269,1569939898,12600,119505,Qazvin,200,,,,,,,,qazvin
1,74.27,17.05,802,Clouds,scattered clouds,03d,stations,300.3,1013.52,66,300.3,300.3,,2.88,250.796,41,1569906639,,,0.0051,IN,1569891174,1569934351,19800,1278296,Islampur,200,1013.52,938.42,,,,,,islampur
1,16.43,-28.55,803,Clouds,broken clouds,04d,stations,286.7,1019.28,85,286.7,286.7,,8.32,142.582,58,1569906639,,,0.0062,ZA,1569904414,1569948868,7200,3354071,Oranjemund,200,1019.28,1019.46,,,,,,oranjemund
1,12.48,41.89,800,Clear,clear sky,01d,stations,291.35,1013,82,288.71,294.15,10000,1,,0,1569906470,1,6792,0.0074,IT,1569906380,1569948797,7200,6539761,Rome,200,,,,,,,,roma
1,-66.78,-18.9,803,Clouds,broken clouds,04n,stations,283,1013.02,39,283,283,,6.62,160.29,55,1569906640,,,0.0076,BO,1569924537,1569968676,-14400,3921355,Challapata,200,1013.02,651.06,,,,,,challapata
1,-81.13,22.53,801,Clouds,few clouds,02n,stations,298.15,1012,83,298.15,298.15,8000,3.6,60,20,1569906640,1,7254,0.0099,CU,1569928549,1569971551,-14400,3556437,Jaguey Grande,200,,,,,,,,jaguey grande
1,54.37,24.47,721,Haze,haze,50d,stations,305.59,1008,63,305.15,306.15,5000,2.6,120,0,1569906371,1,7529,0.0064,AE,1569896048,1569939027,14400,292968,Abu Dhabi,200,,,,,,,,abu dhabi
1,126.98,37.57,721,Haze,haze,50d,stations,299.6,1019,57,298.15,301.15,10000,0.5,270,1,1569906169,1,5501,0.0069,KR,1569878806,1569921424,32400,1835848,Seoul,200,,,,,,,,seoul
1,-46.12,-20.97,800,Clear,clear sky,01n,stations,288.4,1014.7,93,288.4,288.4,,2.58,106.141,0,1569906641,,,0.0083,BR,1569919548,1569963751,-10800,3466901,Carmo do Rio Claro,200,1014.7,900.28,,,,,,carmo do rio claro
1,,,,,,,,,,,,,,,,,,,,,,,,,,,404,,,,,city not found,,,korla
1,-90.75,18.61,500,Rain,light rain,10n,stations,297.1,1009.2,95,297.1,297.1,,2.8,78.786,86,1569906641,,,0.0052,MX,1569930804,1569973912,-18000,3527795,Escarcega,200,1009.2,1003.73,,,,0.438,,escarcega
1,63.05,26,801,Clouds,few clouds,02d,stations,304,1010.65,53,304,304,,2.64,226.228,24,1569906641,,,0.0091,PK,1569893985,1569936924,18000,1163054,Turbat,200,1010.65,984.05,,,,,,turbat
1,-89.6,-0.9,500,Rain,light rain,10n,stations,293.7,1012.89,87,293.7,293.7,,6.79,183.176,100,1569906642,,,0.0075,EC,1569843892,1569887512,-21600,3652758,Puerto Baquerizo Moreno,200,1012.89,1013.08,,,,0.126,,puerto baquerizo moreno
1,24.66,71,500,Rain,light rain,10d,stations,278.73,1003,80,278.15,279.15,10000,16.5,90,75,1569906619,1,1632,0.0084,NO,1569904582,1569944750,7200,779622,Havoysund,200,,,,,,,,havoysund
1,,,,,,,,,,,,,,,,,,,,,,,,,,,404,,,,,city not found,,,olafsvik
1,,,,,,,,,,,,,,,,,,,,,,,,,,,404,,,,,city not found,,,stornoway
1,-64.17,8.89,500,Rain,light rain,10n,stations,297.2,1008.42,86,297.2,297.2,,4.43,68.914,72,1569906643,,,0.0054,VE,1569924296,1569967664,-14400,3628142,San Jose de Guanipa,200,1008.42,975.91,,,,0.624,,san jose de guanipa
1,30.82,69.43,500,Rain,light rain,10d,stations,278.15,1001,80,278.15,278.15,10000,15.9,70,90,1569906643,1,1639,0.0064,RU,1569902969,1569943407,10800,464790,Zapolyarnyy,200,,,,,,,,zapolyarnyy
1,147.26,-43.03,802,Clouds,scattered clouds,03d,stations,288.99,1025,41,288.15,289.82,10000,5.1,150,33,1569906643,1,9545,0.0092,AU,1569872722,1569917776,36000,2158744,Margate,200,,,,,,,,margate
1,26.19,59.1,500,Rain,light rain,10d,stations,280.6,983.88,79,280.6,280.6,,7.87,248.796,90,1569906644,,,0.0079,EE,1569903533,1569945064,10800,588365,Vao,200,983.88,977.29,,,,0.624,,vao
1,-53.46,68.31,803,Clouds,broken clouds,04n,stations,277.4,1013.9,69,277.4,277.4,,2.93,54.717,60,1569906644,,,0.0077,GL,1569923164,1569963657,-7200,3422683,Kangaatsiaq,200,1013.9,1013.85,,,,,,kangaatsiaq
1,25,-8.74,500,Rain,light rain,10d,stations,295.7,1012.4,73,295.7,295.7,,2.46,323.914,100,1569906644,,,0.006,CD,1569902670,1569946499,7200,214614,Kamina,200,1012.4,889.96,,,,0.25,,kamina
1,,,,,,,,,,,,,,,,,,,,,,,,,,,404,,,,,city not found,,,ardistan
1,58.76,58.55,500,Rain,light rain,10d,stations,277,1014.53,94,277,277,,5,207.979,100,1569906645,,,0.0082,RU,1569895685,1569937283,18000,498696,Sarany,200,1014.53,970.69,,,,1.188,,sarany
1,118.83,32.34,701,Mist,mist,50d,stations,300.97,1013,78,298.15,304.82,4000,4,50,90,1569906645,1,9660,0.0064,CN,1569880682,1569923459,28800,6957998,Xiongzhou,200,,,,,,,,xiongzhou
1,,,,,,,,,,,,,,,,,,,,,,,,,,,404,,,,,city not found,,,teluk nibung
1,9.1,40.9,800,Clear,clear sky,01n,stations,290.26,1013,82,288.71,293.15,10000,6.2,240,0,1569906646,1,6728,0.0062,IT,1569907173,1569949626,7200,3165828,Tempio Pausania,200,,,,,,,,tempio pausania
1,-80.59,22.98,800,Clear,clear sky,01n,stations,298.7,1010.02,80,298.7,298.7,,6.56,52.372,1,1569906646,,,0.0065,CU,1569928425,1569971415,-14400,3563317,Corralillo,200,1010.02,1008.52,,,,,,corralillo
1,159.24,61.92,804,Clouds,overcast clouds,04d,stations,272.5,1004.19,75,272.5,272.5,,2.33,322.825,95,1569906646,,,0.0066,RU,1569871658,1569913091,39600,2125693,Evensk,200,1004.19,982.58,,,,,,evensk
1,48.41,55.96,804,Clouds,overcast clouds,04d,stations,283.15,1008,81,283.15,283.15,10000,5,170,90,1569906647,1,9038,0.0062,RU,1569898086,1569939849,10800,827990,Privolzhskiy,200,,,,10,,,,privolzhskiy
1,-115.79,60.82,802,Clouds,scattered clouds,03n,stations,277.15,1011,55,277.15,277.15,24140,3.1,180,40,1569906647,1,819,0.0077,CA,1569851187,1569892786,-21600,5972762,Hay River,200,,,,,,,,hay river
1,-65.04,-42.77,800,Clear,clear sky,01n,stations,280.6,1008.68,33,280.6,280.6,,5.68,260.919,0,1569906372,,,0.0069,AR,1569923618,1569968760,-10800,3840092,Puerto Madryn,200,1008.68,993.91,,,,,,puerto madryn
1,46.09,-25.18,800,Clear,clear sky,01d,stations,295.6,1015.08,79,295.6,295.6,,2.28,221.437,0,1569906648,,,0.0056,MG,1569897362,1569941686,10800,1079048,Ambovombe,200,1015.08,1015.17,,,,,,ambovombe
1,-73.25,-3.75,802,Clouds,scattered clouds,03n,stations,298.15,1010,88,298.15,298.15,10000,1.5,310,40,1569906648,1,8694,0.0062,PE,1569926309,1569970009,-18000,3696183,Iquitos,200,,,,,,,,iquitos
1,120.52,17.54,500,Rain,light rain,10d,stations,301.8,1011.11,75,301.8,301.8,,2.56,270.986,80,1569906648,,,0.0066,PH,1569880079,1569923251,28800,1688687,San Quintin,200,1011.11,997.05,,,,1.624,,san quintin
1,-115.76,40.83,803,Clouds,broken clouds,04n,stations,276.78,1014,64,275.93,277.15,16093,2.1,220,75,1569906649,1,3961,0.0069,US,1569850699,1569893259,-25200,5703670,Elko,200,,,,,,,,elko
1,,,,,,,,,,,,,,,,,,,,,,,,,,,404,,,,,city not found,,,hihifo
1,109.48,30.29,801,Clouds,few clouds,02d,stations,296.7,1010.73,44,296.7,296.7,,3.76,154.239,15,1569906649,,,0.0081,CN,1569882898,1569925730,28800,1811720,Enshi,200,1010.73,865.88,,,,,,enshi
1,-101.88,54.77,804,Clouds,overcast clouds,04n,stations,272.3,1024.61,74,272.3,272.3,,1.29,63.158,99,1569906649,,,0.0062,CA,1569934166,1569975891,-18000,5954718,Flin Flon,200,1024.61,982.13,,,,,,flin flon
1,-3.07,13.07,804,Clouds,overcast clouds,04n,stations,299,1008.66,68,299,299,,2.12,205.063,91,1569906650,,,0.0087,BF,1569909686,1569952953,0,2354176,Tougan,200,1008.66,978.79,,,,,,tougan
1,33.8,-3.17,500,Rain,light rain,10d,stations,299.3,1012.74,48,299.3,299.3,,1.3,17.708,80,1569906650,,,0.0104,TZ,1569900633,1569944313,10800,151211,Sola,200,1012.74,876.68,,,,1.313,,sola
1,151.84,-26.54,802,Clouds,scattered clouds,03d,stations,296.38,1025,43,296.15,296.48,10000,7.7,100,40,1569906650,1,9535,0.0057,AU,1569871978,1569916322,36000,2161376,Kingaroy,200,,,,,,,,kingaroy
1,111.87,34.75,804,Clouds,overcast clouds,04d,stations,296.9,1012.09,46,296.9,296.9,,3.06,134.497,100,1569906651,,,0.0053,CN,1569882390,1569925091,28800,1786676,Yima,200,1012.09,919.03,,,,,,yima
1,-51.98,-31.37,800,Clear,clear sky,01n,stations,292.59,1002,92,292.59,292.59,,1.34,71,0,1569906651,3,2020865,0.0071,BR,1569920763,1569965348,-10800,3448596,Sao Lourenco do Sul,200,,,,2.68,,,,sao lourenco do sul
1,-137.51,60.75,500,Rain,light rain,10n,stations,277.2,1006.65,98,277.2,277.2,,1.93,115.074,100,1569906651,,,0.0074,CA,1569856406,1569897990,-25200,5969025,Haines Junction,200,1006.65,875.53,,,,0.75,,haines junction
1,59.15,53.14,801,Clouds,few clouds,02d,stations,275.15,1024,74,275.15,275.15,10000,3,190,21,1569906651,1,8976,0.0069,RU,1569895423,1569937358,18000,584051,Svetlogorsk,200,,,,,,,,svetlogorsk
1,-91.67,41.98,800,Clear,clear sky,01n,stations,296.56,1012,83,295.15,298.15,16093,3.1,170,1,1569906571,1,6205,0.0082,US,1569931396,1569973761,-18000,4850751,Cedar Rapids,200,,,,,,,,cedar rapids
1,14.43,27.03,800,Clear,clear sky,01d,stations,295.9,1015.53,44,295.9,295.9,,2.73,110.252,0,1569906652,,,0.0074,LY,1569905672,1569948570,7200,2212775,Sabha,200,1015.53,963.89,,,,,,sabha
1,147.27,-2.02,500,Rain,light rain,10d,stations,301.5,1009.64,76,301.5,301.5,,3.03,50.62,98,1569906652,,,0.0062,PG,1569873422,1569917071,36000,2092164,Lorengau,200,1009.64,1001.53,,,,2,,lorengau
1,107.58,16.47,801,Clouds,few clouds,02d,stations,309.15,1011,53,309.15,309.15,10000,2.6,350,20,1569906652,1,9310,0.0064,VN,1569883172,1569926368,25200,1580240,Hue,200,,,,,,,,hue
1,20.93,14.53,803,Clouds,broken clouds,04d,stations,302.8,1008.89,49,302.8,302.8,,3.67,208.074,69,1569906653,,,0.0056,TD,1569903945,1569947177,3600,244878,Biltine,200,1008.89,958.21,,,,,,biltine
1,95.32,5.56,500,Rain,light rain,10d,stations,300.9,1011.69,74,300.9,300.9,,4.16,227.239,55,1569906653,,,0.0053,ID,1569885981,1569929443,25200,1215502,Banda Aceh,200,1011.69,1011.37,,,,0.375,,banda aceh
1,-122.69,58.81,803,Clouds,broken clouds,04n,stations,280.15,1009,75,280.15,280.15,24140,1.5,220,75,1569906653,1,986,0.0059,CA,1569852775,1569894509,-25200,5955902,Fort Nelson,200,,,,,,,,fort nelson
1,111.84,31.78,800,Clear,clear sky,01d,stations,302.4,1009.85,33,302.4,302.4,,4.51,119.171,7,1569906654,,,0.0057,CN,1569882353,1569925143,28800,1799574,Nanzhang,200,1009.85,934.31,,,,,,nanzhang
1,-58.36,-34.61,202,Thunderstorm,thunderstorm with heavy rain,11n,stations,287.28,1002,82,285.37,290.15,10000,6.2,150,90,1569906654,1,8224,0.0072,AR,1569922223,1569966949,-10800,3435910,Puerto Madero,200,,,,,,,,puerto madero
1,66.63,32.93,801,Clouds,few clouds,02d,stations,292.4,1012.98,21,292.4,292.4,,3.18,306.539,19,1569906655,,,0.0059,AF,1569893225,1569935966,16200,1131462,Uruzgan,200,1012.98,754.34,,,,,,uruzgan
1,-110.23,23.45,501,Rain,moderate rain,10n,stations,295.3,1012,77,293.71,297.04,11265,4.1,260,90,1569906655,1,7165,0.0062,MX,1569849127,1569892178,-21600,3981432,Todos Santos,200,,,,,,,,todos santos
1,,,,,,,,,,,,,,,,,,,,,,,,,,,404,,,,,city not found,,,kamenskoye
1,102.29,-0.42,804,Clouds,overcast clouds,04d,stations,305.6,1010.09,49,305.6,305.6,,2.16,155.547,91,1569906655,,,0.0051,ID,1569884234,1569927844,25200,1642773,Japura,200,1010.09,1002.77,,,,,,japura
1,167.69,-46.13,500,Rain,light rain,10d,stations,282.04,1009,69,282.04,282.04,,2.68,263,100,1569906656,3,2008959,0.0056,NZ,1569867735,1569912959,46800,2180815,Tuatapere,200,,,,5.36,,0.5,,tuatapere
1,53.91,65.01,500,Rain,light rain,10d,stations,279.3,998.77,95,279.3,279.3,,2.52,197.009,100,1569906656,,,0.0078,RU,1569897131,1569938164,10800,554830,Izhma,200,998.77,988.73,,,,0.188,,izhma
1,91.39,53.6,800,Clear,clear sky,01d,stations,280.15,1028,48,280.15,280.15,10000,2,180,0,1569906657,1,8942,0.0091,RU,1569887688,1569929621,25200,1510377,Belyy Yar,200,,,,,,,,belyy yar
